[
 
  {
    "id": "1",
    "airportName": "Mexico City International Airport",
    "city": "Mexico City",
    "country": "Mexico",
    "code": "MEX",
    "latitude": "19.4363",
    "longitude": "-99.0721",
    "altitude": "7316",
    "timezone": "-6",
    "DST": "A",
    "destination": "America/Mexico_City",
    "type": "airport",
    "source": "OurAirports"
  },
  {
    "id": "2",
    "airportName": "Cancun International Airport",
    "city": "Cancun",
    "country": "Mexico",
    "code": "CUN",
    "latitude": "21.0365",
    "longitude": "-86.8771",
    "altitude": "22",
    "timezone": "-5",
    "DST": "A",
    "destination": "America/Cancun",
    "type": "airport",
    "source": "OurAirports"
  },
  {
    "id": "3",
    "airportName": "Tijuana International Airport",
    "city": "Tijuana",
    "country": "Mexico",
    "code": "TIJ",
    "latitude": "32.5411",
    "longitude": "-116.9700",
    "altitude": "489",
    "timezone": "-8",
    "DST": "A",
    "destination": "America/Tijuana",
    "type": "airport",
    "source": "OurAirports"
  },
  {
    "id": "4",
    "airportName": "Licenciado Gustavo Díaz Ordaz International Airport",
    "city": "Puerto Vallarta",
    "country": "Mexico",
    "code": "PVR",
    "latitude": "20.6801",
    "longitude": "-105.2533",
    "altitude": "23",
    "timezone": "-6",
    "DST": "A",
    "destination": "America/Mexico_City",
    "type": "airport",
    "source": "OurAirports"
  },
  {
    "id": "5",
    "airportName": "Punta Cana International Airport",
    "city": "Punta Cana",
    "country": "Dominican Republic",
    "code": "PUJ",
    "latitude": "18.5674",
    "longitude": "-68.3634",
    "altitude": "47",
    "timezone": "-4",
    "DST": "N",
    "destination": "America/Santo_Domingo",
    "type": "airport",
    "source": "OurAirports"
  },
  {
    "id": "6",
    "airportName": "Sangster International Airport",
    "city": "Montego Bay",
    "country": "Jamaica",
    "code": "MBJ",
    "latitude": "18.5037",
    "longitude": "-77.9134",
    "altitude": "4",
    "timezone": "-5",
    "DST": "N",
    "destination": "America/Jamaica",
    "type": "airport",
    "source": "OurAirports"
  },
  {
    "id": "7",
    "airportName": "Jose Marti International Airport",
    "city": "Havana",
    "country": "Cuba",
    "code": "HAV",
    "latitude": "22.9892",
    "longitude": "-82.4091",
    "altitude": "210",
    "timezone": "-5",
    "DST": "A",
    "destination": "America/Havana",
    "type": "airport",
    "source": "OurAirports"
  },
  {
    "id": "8",
    "airportName": "Tocumen International Airport",
    "city": "Panama City",
    "country": "Panama",
    "code": "PTY",
    "latitude": "9.0714",
    "longitude": "-79.3834",
    "altitude": "135",
    "timezone": "-5",
    "DST": "N",
    "destination": "America/Panama",
    "type": "airport",
    "source": "OurAirports"
  },
  {
    "id": "9",
    "airportName": "Grantley Adams International Airport",
    "city": "Bridgetown",
    "country": "Barbados",
    "code": "BGI",
    "latitude": "13.0746",
    "longitude": "-59.4925",
    "altitude": "167",
    "timezone": "-4",
    "DST": "N",
    "destination": "America/Barbados",
    "type": "airport",
    "source": "OurAirports"
  },
  {
    "id": "10",
    "airportName": "José María Córdova International Airport",
    "city": "Medellín",
    "country": "Colombia",
    "code": "MDE",
    "latitude": "6.1645",
    "longitude": "-75.4231",
    "altitude": "7020",
    "timezone": "-5",
    "DST": "N",
    "destination": "America/Bogota",
    "type": "airport",
    "source": "OurAirports"
  },
  {
    "id": "11",
    "airportName": "Queen Beatrix International Airport",
    "city": "Oranjestad",
    "country": "Aruba",
    "code": "AUA",
    "latitude": "12.5014",
    "longitude": "-70.0152",
    "altitude": "60",
    "timezone": "-4",
    "DST": "N",
    "destination": "America/Aruba",
    "type": "airport",
    "source": "OurAirports"
  },
  {
    "id": "12",
    "airportName": "Monseñor Óscar Arnulfo Romero International Airport",
    "city": "San Salvador",
    "country": "El Salvador",
    "code": "SAL",
    "latitude": "13.4409",
    "longitude": "-89.0557",
    "altitude": "101",
    "timezone": "-6",
    "DST": "N",
    "destination": "America/El_Salvador",
    "type": "airport",
    "source": "OurAirports"
  },
  {
    "id": "13",
    "airportName": "La Aurora International Airport",
    "city": "Guatemala City",
    "country": "Guatemala",
    "code": "GUA",
    "latitude": "14.5833",
    "longitude": "-90.5275",
    "altitude": "4952",
    "timezone": "-6",
    "DST": "N",
    "destination": "America/Guatemala",
    "type": "airport",
    "source": "OurAirports"
  },
  {
    "id": "14",
    "airportName": "Philip S. W. Goldson International Airport",
    "city": "Belize City",
    "country": "Belize",
    "code": "BZE",
    "latitude": "17.5391",
    "longitude": "-88.3082",
    "altitude": "15",
    "timezone": "-6",
    "DST": "N",
    "destination": "America/Belize",
    "type": "airport",
    "source": "OurAirports"
  },
  {
    "id": "15",
    "airportName": "Comodoro Arturo Merino Benítez International Airport",
    "city": "Santiago",
    "country": "Chile",
    "code": "SCL",
    "latitude": "-33.393",
    "longitude": "-70.7858",
    "altitude": "1555",
    "timezone": "-4",
    "DST": "N",
    "destination": "America/Santiago",
    "type": "airport",
    "source": "OurAirports"
  },
  {
    "id": "16",
    "airportName": "Ministro Pistarini International Airport",
    "city": "Buenos Aires",
    "country": "Argentina",
    "code": "EZE",
    "latitude": "-34.8222",
    "longitude": "-58.5358",
    "altitude": "67",
    "timezone": "-3",
    "DST": "N",
    "destination": "America/Argentina/Buenos_Aires",
    "type": "airport",
    "source": "OurAirports"
  },
  {
    "id": "17",
    "airportName": "São Paulo/Guarulhos–Governador André Franco Montoro International Airport",
    "city": "São Paulo",
    "country": "Brazil",
    "code": "GRU",
    "latitude": "-23.4356",
    "longitude": "-46.4731",
    "altitude": "2459",
    "timezone": "-3",
    "DST": "N",
    "destination": "America/Sao_Paulo",
    "type": "airport",
    "source": "OurAirports"
  },
  {
    "id": "18",
    "airportName": "Jorge Chávez International Airport",
    "city": "Lima",
    "country": "Peru",
    "code": "LIM",
    "latitude": "-12.0219",
    "longitude": "-77.1143",
    "altitude": "113",
    "timezone": "-5",
    "DST": "N",
    "destination": "America/Lima",
    "type": "airport",
    "source": "OurAirports"
  },
  {
    "id": "19",
    "airportName": "El Dorado International Airport",
    "city": "Bogotá",
    "country": "Colombia",
    "code": "BOG",
    "latitude": "4.7016",
    "longitude": "-74.1469",
    "altitude": "8361",
    "timezone": "-5",
    "DST": "N",
    "destination": "America/Bogota",
    "type": "airport",
    "source": "OurAirports"
  },
  {
    "id": "20",
    "airportName": "Alfonso Bonilla Aragón International Airport",
    "city": "Cali",
    "country": "Colombia",
    "code": "CLO",
    "latitude": "3.5432",
    "longitude": "-76.3816",
    "altitude": "3162",
    "timezone": "-5",
    "DST": "N",
    "destination": "America/Bogota",
    "type": "airport",
    "source": "OurAirports"
  },
  {
    "id": "21",
    "airportName": "Miguel Hidalgo y Costilla Guadalajara International Airport",
    "city": "Guadalajara",
    "country": "Mexico",
    "code": "GDL",
    "latitude": "20.5218",
    "longitude": "-103.3101",
    "altitude": "5016",
    "timezone": "-6",
    "DST": "A",
    "destination": "America/Mexico_City",
    "type": "airport",
    "source": "OurAirports"
  },
  {
    "id": "22",
    "airportName": "Luis Muñoz Marín International Airport",
    "city": "San Juan",
    "country": "Puerto Rico",
    "code": "SJU",
    "latitude": "18.4394",
    "longitude": "-66.0018",
    "altitude": "9",
    "timezone": "-4",
    "DST": "N",
    "destination": "America/Puerto_Rico",
    "type": "airport",
    "source": "OurAirports"
  },
  {
    "id": "23",
    "airportName": "Las Américas International Airport",
    "city": "Santo Domingo",
    "country": "Dominican Republic",
    "code": "SDQ",
    "latitude": "18.4297",
    "longitude": "-69.6689",
    "altitude": "59",
    "timezone": "-4",
    "DST": "N",
    "destination": "America/Santo_Domingo",
    "type": "airport",
    "source": "OurAirports"
  },
  {
    "id": "24",
    "airportName": "Princess Juliana International Airport",
    "city": "Sint Maarten",
    "country": "Sint Maarten",
    "code": "SXM",
    "latitude": "18.041",
    "longitude": "-63.111",
    "altitude": "13",
    "timezone": "-4",
    "DST": "N",
    "destination": "America/Curacao",
    "type": "airport",
    "source": "OurAirports"
  },
  {
    "id": "25",
    "airportName": "Norman Manley International Airport",
    "city": "Kingston",
    "country": "Jamaica",
    "code": "KIN",
    "latitude": "17.9357",
    "longitude": "-76.7878",
    "altitude": "10",
    "timezone": "-5",
    "DST": "N",
    "destination": "America/Jamaica",
    "type": "airport",
    "source": "OurAirports"
  },
  {
    "id": "26",
    "airportName": "Toronto Pearson International Airport",
    "city": "Toronto",
    "country": "Canada",
    "code": "YYZ",
    "latitude": "43.6777",
    "longitude": "-79.6248",
    "altitude": "569",
    "timezone": "-5",
    "DST": "N",
    "destination": "America/Toronto",
    "type": "airport",
    "source": "OurAirports"
  },
  {
    "id": "27",
    "airportName": "Montréal-Trudeau International Airport",
    "city": "Montreal",
    "country": "Canada",
    "code": "YUL",
    "latitude": "45.4706",
    "longitude": "-73.7408",
    "altitude": "118",
    "timezone": "-5",
    "DST": "N",
    "destination": "America/Montreal",
    "type": "airport",
    "source": "OurAirports"
  },
  {
    "id": "28",
    "airportName": "Edmonton International Airport",
    "city": "Edmonton",
    "country": "Canada",
    "code": "YEG",
    "latitude": "53.3097",
    "longitude": "-113.5797",
    "altitude": "2373",
    "timezone": "-7",
    "DST": "N",
    "destination": "America/Edmonton",
    "type": "airport",
    "source": "OurAirports"
  },
  {
    "id": "29",
    "airportName": "Calgary International Airport",
    "city": "Calgary",
    "country": "Canada",
    "code": "YYC",
    "latitude": "51.1139",
    "longitude": "-114.0203",
    "altitude": "3557",
    "timezone": "-7",
    "DST": "N",
    "destination": "America/Calgary",
    "type": "airport",
    "source": "OurAirports"
  },
  {
    "id": "30",
    "airportName": "Vancouver International Airport",
    "city": "Vancouver",
    "country": "Canada",
    "code": "YVR",
    "latitude": "49.1947",
    "longitude": "-123.1794",
    "altitude": "14",
    "timezone": "-8",
    "DST": "N",
    "destination": "America/Vancouver",
    "type": "airport",
    "source": "OurAirports"
  },
  {
    "id": "31",
    "airportName": "Winnipeg James Armstrong Richardson International Airport",
    "city": "Winnipeg",
    "country": "Canada",
    "code": "YWG",
    "latitude": "49.9097",
    "longitude": "-97.2399",
    "altitude": "783",
    "timezone": "-6",
    "DST": "N",
    "destination": "America/Winnipeg",
    "type": "airport",
    "source": "OurAirports"
  },
  {
    "id": "32",
    "airportName": "Yola Airport",
    "city": "Yola",
    "country": "Nigeria",
    "code": "YOL",
    "latitude": "9.2576",
    "longitude": "12.4304",
    "altitude": "599",
    "timezone": "+1",
    "DST": "N",
    "destination": "Africa/Lagos",
    "type": "airport",
    "source": "OurAirports"
  },
  {
    "id": "33",
    "airportName": "Halifax Stanfield International Airport",
    "city": "Halifax",
    "country": "Canada",
    "code": "YHZ",
    "latitude": "44.8808",
    "longitude": "-63.5086",
    "altitude": "477",
    "timezone": "-4",
    "DST": "N",
    "destination": "America/Halifax",
    "type": "airport",
    "source": "OurAirports"
  },
  {
    "id": "34",
    "airportName": "Regina International Airport",
    "city": "Regina",
    "country": "Canada",
    "code": "YQR",
    "latitude": "50.4319",
    "longitude": "-104.6658",
    "altitude": "1894",
    "timezone": "-6",
    "DST": "N",
    "destination": "America/Regina",
    "type": "airport",
    "source": "OurAirports"
  },
  {
    "id": "3411",
    "airportName": "Barter Island LRRS Airport",
    "city": "Barter Island",
    "country": "United States",
    "code": "BTI",
    "latitude": "70.1340026855",
    "longitude": "-143.582000732",
    "altitude": "2",
    "timezone": "-9",
    "DST": "A",
    "destination": "America/Anchorage",
    "type": "airport",
    "source": "OurAirports"
  },
  {
    "id": "3413",
    "airportName": "Cape Lisburne LRRS Airport",
    "city": "Cape Lisburne",
    "country": "United States",
    "code": "LUR",
    "latitude": "68.87509918",
    "longitude": "-166.1100006",
    "altitude": "16",
    "timezone": "-9",
    "DST": "A",
    "destination": "America/Anchorage",
    "type": "airport",
    "source": "OurAirports"
  },
  {
    "id": "3414",
    "airportName": "Point Lay LRRS Airport",
    "city": "Point Lay",
    "country": "United States",
    "code": "PIZ",
    "latitude": "69.73290253",
    "longitude": "-163.0050049",
    "altitude": "22",
    "timezone": "-9",
    "DST": "A",
    "destination": "America/Anchorage",
    "type": "airport",
    "source": "OurAirports"
  },
  {
    "id": "3415",
    "airportName": "Hilo International Airport",
    "city": "Hilo",
    "country": "United States",
    "code": "ITO",
    "latitude": "19.721399307250977",
    "longitude": "-155.04800415039062",
    "altitude": "38",
    "timezone": "-10",
    "DST": "N",
    "destination": "Pacific/Honolulu",
    "type": "airport",
    "source": "OurAirports"
  },
  {
    "id": "3416",
    "airportName": "Orlando Executive Airport",
    "city": "Orlando",
    "country": "United States",
    "code": "ORL",
    "latitude": "28.5455",
    "longitude": "-81.332901",
    "altitude": "113",
    "timezone": "-5",
    "DST": "A",
    "destination": "America/New_York",
    "type": "airport",
    "source": "OurAirports"
  },
  {
    "id": "3417",
    "airportName": "Bettles Airport",
    "city": "Bettles",
    "country": "United States",
    "code": "BTT",
    "latitude": "66.91390228",
    "longitude": "-151.529007",
    "altitude": "647",
    "timezone": "-9",
    "DST": "A",
    "destination": "America/Anchorage",
    "type": "airport",
    "source": "OurAirports"
  },
  {
    "id": "3419",
    "airportName": "Indian Mountain LRRS Airport",
    "city": "Indian Mountains",
    "country": "United States",
    "code": "UTO",
    "latitude": "65.99279785",
    "longitude": "-153.7039948",
    "altitude": "1273",
    "timezone": "-9",
    "DST": "A",
    "destination": "America/Anchorage",
    "type": "airport",
    "source": "OurAirports"
  },
  {
    "id": "3420",
    "airportName": "Fort Yukon Airport",
    "city": "Fort Yukon",
    "country": "United States",
    "code": "FYU",
    "latitude": "66.57150268554688",
    "longitude": "-145.25",
    "altitude": "433",
    "timezone": "-9",
    "DST": "A",
    "destination": "America/Anchorage",
    "type": "airport",
    "source": "OurAirports"
  },
  {
    "id": "3421",
    "airportName": "Sparrevohn LRRS Airport",
    "city": "Sparrevohn",
    "country": "United States",
    "code": "SVW",
    "latitude": "61.09740067",
    "longitude": "-155.5740051",
    "altitude": "1585",
    "timezone": "-9",
    "DST": "A",
    "destination": "America/Anchorage",
    "type": "airport",
    "source": "OurAirports"
  },
  {
    "id": "3422",
    "airportName": "Bryant Army Heliport",
    "city": "Fort Richardson",
    "country": "United States",
    "code": "FRN",
    "latitude": "61.26639938",
    "longitude": "-149.6529999",
    "altitude": "378",
    "timezone": "-9",
    "DST": "A",
    "destination": "America/Anchorage",
    "type": "airport",
    "source": "OurAirports"
  },
  {
    "id": "3423",
    "airportName": "Tatalina LRRS Airport",
    "city": "Tatalina",
    "country": "United States",
    "code": "TLJ",
    "latitude": "62.894401550299996",
    "longitude": "-155.977005005",
    "altitude": "964",
    "timezone": "-9",
    "DST": "A",
    "destination": "America/Anchorage",
    "type": "airport",
    "source": "OurAirports"
  },
  {
    "id": "3424",
    "airportName": "Cape Romanzof LRRS Airport",
    "city": "Cape Romanzof",
    "country": "United States",
    "code": "CZF",
    "latitude": "61.78030014",
    "longitude": "-166.0390015",
    "altitude": "464",
    "timezone": "-9",
    "DST": "A",
    "destination": "America/Anchorage",
    "type": "airport",
    "source": "OurAirports"
  },
  {
    "id": "3425",
    "airportName": "Laurence G Hanscom Field",
    "city": "Bedford",
    "country": "United States",
    "code": "BED",
    "latitude": "42.47000122",
    "longitude": "-71.28900146",
    "altitude": "133",
    "timezone": "-5",
    "DST": "A",
    "destination": "America/New_York",
    "type": "airport",
    "source": "OurAirports"
  },
  {
    "id": "3426",
    "airportName": "St Paul Island Airport",
    "city": "St. Paul Island",
    "country": "United States",
    "code": "SNP",
    "latitude": "57.167301177978516",
    "longitude": "-170.22000122070312",
    "altitude": "63",
    "timezone": "-9",
    "DST": "A",
    "destination": "America/Anchorage",
    "type": "airport",
    "source": "OurAirports"
  },
  {
    "id": "3427",
    "airportName": "Cape Newenham LRRS Airport",
    "city": "Cape Newenham",
    "country": "United States",
    "code": "EHM",
    "latitude": "58.646400451699996",
    "longitude": "-162.06300354",
    "altitude": "541",
    "timezone": "-9",
    "DST": "A",
    "destination": "America/Anchorage",
    "type": "airport",
    "source": "OurAirports"
  },
  {
    "id": "3428",
    "airportName": "St George Airport",
    "city": "Point Barrow",
    "country": "United States",
    "code": "STG",
    "latitude": "56.578300476100004",
    "longitude": "-169.662002563",
    "altitude": "125",
    "timezone": "-9",
    "DST": "A",
    "destination": "America/Anchorage",
    "type": "airport",
    "source": "OurAirports"
  },
  {
    "id": "3429",
    "airportName": "Iliamna Airport",
    "city": "Iliamna",
    "country": "United States",
    "code": "ILI",
    "latitude": "59.75439835",
    "longitude": "-154.9109955",
    "altitude": "192",
    "timezone": "-9",
    "DST": "A",
    "destination": "America/Anchorage",
    "type": "airport",
    "source": "OurAirports"
  },
  {
    "id": "3430",
    "airportName": "Platinum Airport",
    "city": "Port Moller",
    "country": "United States",
    "code": "PTU",
    "latitude": "59.01139831542969",
    "longitude": "-161.82000732421875",
    "altitude": "15",
    "timezone": "-9",
    "DST": "A",
    "destination": "America/Anchorage",
    "type": "airport",
    "source": "OurAirports"
  },
  {
    "id": "3431",
    "airportName": "Big Mountain Airport",
    "city": "Big Mountain",
    "country": "United States",
    "code": "BMX",
    "latitude": "59.3611984253",
    "longitude": "-155.259002686",
    "altitude": "663",
    "timezone": "-9",
    "DST": "A",
    "destination": "America/Anchorage",
    "type": "airport",
    "source": "OurAirports"
  },
  {
    "id": "3432",
    "airportName": "Oscoda Wurtsmith Airport",
    "city": "Oscoda",
    "country": "United States",
    "code": "OSC",
    "latitude": "44.451599",
    "longitude": "-83.394096",
    "altitude": "633",
    "timezone": "-5",
    "DST": "A",
    "destination": "America/New_York",
    "type": "airport",
    "source": "OurAirports"
  },
  {
    "id": "3433",
    "airportName": "Marina Municipal Airport",
    "city": "Fort Ord",
    "country": "United States",
    "code": "OAR",
    "latitude": "36.68190002",
    "longitude": "-121.762001",
    "altitude": "137",
    "timezone": "-8",
    "DST": "A",
    "destination": "America/Los_Angeles",
    "type": "airport",
    "source": "OurAirports"
  },
  {
    "id": "3434",
    "airportName": "Sacramento Mather Airport",
    "city": "Sacramento",
    "country": "United States",
    "code": "MHR",
    "latitude": "38.55390167",
    "longitude": "-121.2979965",
    "altitude": "98",
    "timezone": "-8",
    "DST": "A",
    "destination": "America/Los_Angeles",
    "type": "airport",
    "source": "OurAirports"
  },
  {
    "id": "3435",
    "airportName": "Bicycle Lake Army Air Field",
    "city": "Fort Irwin",
    "country": "United States",
    "code": "BYS",
    "latitude": "35.2804985046",
    "longitude": "-116.629997253",
    "altitude": "2350",
    "timezone": "-8",
    "DST": "A",
    "destination": "America/Los_Angeles",
    "type": "airport",
    "source": "OurAirports"
  },
  {
    "id": "3437",
    "airportName": "Fort Smith Regional Airport",
    "city": "Fort Smith",
    "country": "United States",
    "code": "FSM",
    "latitude": "35.33660125732422",
    "longitude": "-94.36740112304688",
    "altitude": "469",
    "timezone": "-6",
    "DST": "A",
    "destination": "America/Chicago",
    "type": "airport",
    "source": "OurAirports"
  },
  {
    "id": "3438",
    "airportName": "Merrill Field",
    "city": "Anchorage",
    "country": "United States",
    "code": "MRI",
    "latitude": "61.2135009765625",
    "longitude": "-149.843994140625",
    "altitude": "137",
    "timezone": "-9",
    "DST": "A",
    "destination": "America/Anchorage",
    "type": "airport",
    "source": "OurAirports"
  },
  {
    "id": "3439",
    "airportName": "Grants-Milan Municipal Airport",
    "city": "Grants",
    "country": "United States",
    "code": "GNT",
    "latitude": "35.167301178",
    "longitude": "-107.902000427",
    "altitude": "6537",
    "timezone": "-7",
    "DST": "A",
    "destination": "America/Denver",
    "type": "airport",
    "source": "OurAirports"
  },
  {
    "id": "3440",
    "airportName": "Ponca City Regional Airport",
    "city": "Ponca City",
    "country": "United States",
    "code": "PNC",
    "latitude": "36.73199844",
    "longitude": "-97.09980011",
    "altitude": "1008",
    "timezone": "-6",
    "DST": "A",
    "destination": "America/Chicago",
    "type": "airport",
    "source": "OurAirports"
  },
  {
    "id": "3441",
    "airportName": "Hunter Army Air Field",
    "city": "Hunter Aaf",
    "country": "United States",
    "code": "SVN",
    "latitude": "32.00999832",
    "longitude": "-81.14569855",
    "altitude": "41",
    "timezone": "-5",
    "DST": "A",
    "destination": "America/New_York",
    "type": "airport",
    "source": "OurAirports"
  },
  {
    "id": "3442",
    "airportName": "Grand Forks International Airport",
    "city": "Grand Forks",
    "country": "United States",
    "code": "GFK",
    "latitude": "47.949299",
    "longitude": "-97.176102",
    "altitude": "845",
    "timezone": "-6",
    "DST": "A",
    "destination": "America/Chicago",
    "type": "airport",
    "source": "OurAirports"
  },
  {
    "id": "3443",
    "airportName": "Pine Bluff Regional Airport, Grider Field",
    "city": "Pine Bluff",
    "country": "United States",
    "code": "PBF",
    "latitude": "34.1731",
    "longitude": "-91.9356",
    "altitude": "206",
    "timezone": "-6",
    "DST": "A",
    "destination": "America/Chicago",
    "type": "airport",
    "source": "OurAirports"
  },
  {
    "id": "3444",
    "airportName": "Whiting Field Naval Air Station - North",
    "city": "Milton",
    "country": "United States",
    "code": "NSE",
    "latitude": "30.7241993",
    "longitude": "-87.02189636",
    "altitude": "199",
    "timezone": "-6",
    "DST": "A",
    "destination": "America/Chicago",
    "type": "airport",
    "source": "OurAirports"
  },
  {
    "id": "3445",
    "airportName": "Hana Airport",
    "city": "Hana",
    "country": "United States",
    "code": "HNM",
    "latitude": "20.79560089111328",
    "longitude": "-156.01400756835938",
    "altitude": "78",
    "timezone": "-10",
    "DST": "A",
    "destination": "Pacific/Honolulu",
    "type": "airport",
    "source": "OurAirports"
  },
  {
    "id": "3446",
    "airportName": "Ernest A. Love Field",
    "city": "Prescott",
    "country": "United States",
    "code": "PRC",
    "latitude": "34.65449905",
    "longitude": "-112.4199982",
    "altitude": "5045",
    "timezone": "-7",
    "DST": "A",
    "destination": "America/Phoenix",
    "type": "airport",
    "source": "OurAirports"
  },
  {
    "id": "3447",
    "airportName": "Trenton Mercer Airport",
    "city": "Trenton",
    "country": "United States",
    "code": "TTN",
    "latitude": "40.27669906616211",
    "longitude": "-74.8134994506836",
    "altitude": "213",
    "timezone": "-5",
    "DST": "A",
    "destination": "America/New_York",
    "type": "airport",
    "source": "OurAirports"
  },
  {
    "id": "3448",
    "airportName": "General Edward Lawrence Logan International Airport",
    "city": "Boston",
    "country": "United States",
    "code": "BOS",
    "latitude": "42.36429977",
    "longitude": "-71.00520325",
    "altitude": "20",
    "timezone": "-5",
    "DST": "A",
    "destination": "America/New_York",
    "type": "airport",
    "source": "OurAirports"
  },
  {
    "id": "3449",
    "airportName": "Travis Air Force Base",
    "city": "Fairfield",
    "country": "United States",
    "code": "SUU",
    "latitude": "38.262699127197",
    "longitude": "-121.92700195312",
    "altitude": "62",
    "timezone": "-8",
    "DST": "A",
    "destination": "America/Los_Angeles",
    "type": "airport",
    "source": "OurAirports"
  },
  {
    "id": "3450",
    "airportName": "Griffiss International Airport",
    "city": "Rome",
    "country": "United States",
    "code": "RME",
    "latitude": "43.23379898",
    "longitude": "-75.40699768",
    "altitude": "504",
    "timezone": "-5",
    "DST": "A",
    "destination": "America/New_York",
    "type": "airport",
    "source": "OurAirports"
  },
  {
    "id": "3451",
    "airportName": "Wendover Airport",
    "city": "Wendover",
    "country": "United States",
    "code": "ENV",
    "latitude": "40.7187004089",
    "longitude": "-114.03099823",
    "altitude": "4237",
    "timezone": "-7",
    "DST": "A",
    "destination": "America/Denver",
    "type": "airport",
    "source": "OurAirports"
  },
  {
    "id": "3452",
    "airportName": "Mobile Downtown Airport",
    "city": "Mobile",
    "country": "United States",
    "code": "BFM",
    "latitude": "30.626800537100003",
    "longitude": "-88.06809997559999",
    "altitude": "26",
    "timezone": "-6",
    "DST": "A",
    "destination": "America/Chicago",
    "type": "airport",
    "source": "OurAirports"
  },
  {
    "id": "3453",
    "airportName": "Metropolitan Oakland International Airport",
    "city": "Oakland",
    "country": "United States",
    "code": "OAK",
    "latitude": "37.721298",
    "longitude": "-122.221001",
    "altitude": "9",
    "timezone": "-8",
    "DST": "A",
    "destination": "America/Los_Angeles",
    "type": "airport",
    "source": "OurAirports"
  },
  {
    "id": "3454",
    "airportName": "Eppley Airfield",
    "city": "Omaha",
    "country": "United States",
    "code": "OMA",
    "latitude": "41.3032",
    "longitude": "-95.894096",
    "altitude": "984",
    "timezone": "-6",
    "DST": "A",
    "destination": "America/Chicago",
    "type": "airport",
    "source": "OurAirports"
  },
  {
    "id": "3456",
    "airportName": "Kahului Airport",
    "city": "Kahului",
    "country": "United States",
    "code": "OGG",
    "latitude": "20.8986",
    "longitude": "-156.429993",
    "altitude": "54",
    "timezone": "-10",
    "DST": "N",
    "destination": "Pacific/Honolulu",
    "type": "airport",
    "source": "OurAirports"
  },
  {
    "id": "3457",
    "airportName": "Wichita Eisenhower National Airport",
    "city": "Wichita",
    "country": "United States",
    "code": "ICT",
    "latitude": "37.649899",
    "longitude": "-97.433098",
    "altitude": "1333",
    "timezone": "-6",
    "DST": "A",
    "destination": "America/Chicago",
    "type": "airport",
    "source": "OurAirports"
  },
  {
    "id": "3458",
    "airportName": "Kansas City International Airport",
    "city": "Kansas City",
    "country": "United States",
    "code": "MCI",
    "latitude": "39.2976",
    "longitude": "-94.713898",
    "altitude": "1026",
    "timezone": "-6",
    "DST": "A",
    "destination": "America/Chicago",
    "type": "airport",
    "source": "OurAirports"
  },
  {
    "id": "3459",
    "airportName": "Dane County Regional Truax Field",
    "city": "Madison",
    "country": "United States",
    "code": "MSN",
    "latitude": "43.13990020751953",
    "longitude": "-89.3375015258789",
    "altitude": "887",
    "timezone": "-6",
    "DST": "A",
    "destination": "America/Chicago",
    "type": "airport",
    "source": "OurAirports"
  },
  {
    "id": "3460",
    "airportName": "Dillingham Airport",
    "city": "Dillingham",
    "country": "United States",
    "code": "DLG",
    "latitude": "59.04470062",
    "longitude": "-158.5050049",
    "altitude": "81",
    "timezone": "-9",
    "DST": "A",
    "destination": "America/Anchorage",
    "type": "airport",
    "source": "OurAirports"
  },
  {
    "id": "3461",
    "airportName": "Boone County Airport",
    "city": "Harrison",
    "country": "United States",
    "code": "HRO",
    "latitude": "36.26150131225586",
    "longitude": "-93.15470123291016",
    "altitude": "1365",
    "timezone": "-6",
    "DST": "A",
    "destination": "America/Chicago",
    "type": "airport",
    "source": "OurAirports"
  },
  {
    "id": "3462",
    "airportName": "Phoenix Sky Harbor International Airport",
    "city": "Phoenix",
    "country": "United States",
    "code": "PHX",
    "latitude": "33.43429946899414",
    "longitude": "-112.01200103759766",
    "altitude": "1135",
    "timezone": "-7",
    "DST": "N",
    "destination": "America/Phoenix",
    "type": "airport",
    "source": "OurAirports"
  },
  {
    "id": "3463",
    "airportName": "Bangor International Airport",
    "city": "Bangor",
    "country": "United States",
    "code": "BGR",
    "latitude": "44.80739974975586",
    "longitude": "-68.8281021118164",
    "altitude": "192",
    "timezone": "-5",
    "DST": "A",
    "destination": "America/New_York",
    "type": "airport",
    "source": "OurAirports"
  },
  {
    "id": "3464",
    "airportName": "Fort Lauderdale Executive Airport",
    "city": "Fort Lauderdale",
    "country": "United States",
    "code": "FXE",
    "latitude": "26.1972999573",
    "longitude": "-80.1707000732",
    "altitude": "13",
    "timezone": "-5",
    "DST": "A",
    "destination": "America/New_York",
    "type": "airport",
    "source": "OurAirports"
  },
  {
    "id": "3465",
    "airportName": "East Texas Regional Airport",
    "city": "Longview",
    "country": "United States",
    "code": "GGG",
    "latitude": "32.38399887084961",
    "longitude": "-94.71150207519531",
    "altitude": "365",
    "timezone": "-6",
    "DST": "A",
    "destination": "America/Chicago",
    "type": "airport",
    "source": "OurAirports"
  },
  {
    "id": "3466",
    "airportName": "Anderson Regional Airport",
    "city": "Andersen",
    "country": "United States",
    "code": "AND",
    "latitude": "34.4945983887",
    "longitude": "-82.70939636230001",
    "altitude": "782",
    "timezone": "-5",
    "DST": "A",
    "destination": "America/New_York",
    "type": "airport",
    "source": "OurAirports"
  },
  {
    "id": "3467",
    "airportName": "Spokane International Airport",
    "city": "Spokane",
    "country": "United States",
    "code": "GEG",
    "latitude": "47.61989974975586",
    "longitude": "-117.53399658203125",
    "altitude": "2376",
    "timezone": "-8",
    "DST": "A",
    "destination": "America/Los_Angeles",
    "type": "airport",
    "source": "OurAirports"
  },
  {
    "id": "3468",
    "airportName": "North Perry Airport",
    "city": "Hollywood",
    "country": "United States",
    "code": "HWO",
    "latitude": "26.0012",
    "longitude": "-80.2407",
    "altitude": "8",
    "timezone": "-5",
    "DST": "A",
    "destination": "America/New_York",
    "type": "airport",
    "source": "OurAirports"
  },
  {
    "id": "3469",
    "airportName": "San Francisco International Airport",
    "city": "San Francisco",
    "country": "United States",
    "code": "SFO",
    "latitude": "37.61899948120117",
    "longitude": "-122.375",
    "altitude": "13",
    "timezone": "-8",
    "DST": "A",
    "destination": "America/Los_Angeles",
    "type": "airport",
    "source": "OurAirports"
  },
  {
    "id": "3470",
    "airportName": "Cut Bank International Airport",
    "city": "Cutbank",
    "country": "United States",
    "code": "CTB",
    "latitude": "48.6083984375",
    "longitude": "-112.375999451",
    "altitude": "3854",
    "timezone": "-7",
    "DST": "A",
    "destination": "America/Denver",
    "type": "airport",
    "source": "OurAirports"
  },
  {
    "id": "3471",
    "airportName": "Acadiana Regional Airport",
    "city": "Louisiana",
    "country": "United States",
    "code": "ARA",
    "latitude": "30.0378",
    "longitude": "-91.883904",
    "altitude": "24",
    "timezone": "-6",
    "DST": "A",
    "destination": "America/Chicago",
    "type": "airport",
    "source": "OurAirports"
  },
  {
    "id": "3472",
    "airportName": "Gainesville Regional Airport",
    "city": "Gainesville",
    "country": "United States",
    "code": "GNV",
    "latitude": "29.6900997162",
    "longitude": "-82.2717971802",
    "altitude": "152",
    "timezone": "-5",
    "DST": "A",
    "destination": "America/New_York",
    "type": "airport",
    "source": "OurAirports"
  },
  {
    "id": "3473",
    "airportName": "Memphis International Airport",
    "city": "Memphis",
    "country": "United States",
    "code": "MEM",
    "latitude": "35.04240036010742",
    "longitude": "-89.97669982910156",
    "altitude": "341",
    "timezone": "-6",
    "DST": "A",
    "destination": "America/Chicago",
    "type": "airport",
    "source": "OurAirports"
  },
  {
    "id": "3474",
    "airportName": "Bisbee Douglas International Airport",
    "city": "Douglas",
    "country": "United States",
    "code": "DUG",
    "latitude": "31.4689998627",
    "longitude": "-109.603996277",
    "altitude": "4154",
    "timezone": "-7",
    "DST": "A",
    "destination": "America/Phoenix",
    "type": "airport",
    "source": "OurAirports"
  },
  {
    "id": "3475",
    "airportName": "Allen Army Airfield",
    "city": "Delta Junction",
    "country": "United States",
    "code": "BIG",
    "latitude": "63.9944992065",
    "longitude": "-145.722000122",
    "altitude": "1291",
    "timezone": "-9",
    "DST": "A",
    "destination": "America/Anchorage",
    "type": "airport",
    "source": "OurAirports"
  },
  {
    "id": "3476",
    "airportName": "TSTC Waco Airport",
    "city": "Waco",
    "country": "United States",
    "code": "CNW",
    "latitude": "31.637800216699997",
    "longitude": "-97.0740966797",
    "altitude": "470",
    "timezone": "-6",
    "DST": "A",
    "destination": "America/Chicago",
    "type": "airport",
    "source": "OurAirports"
  },
  {
    "id": "3477",
    "airportName": "Annette Island Airport",
    "city": "Annette Island",
    "country": "United States",
    "code": "ANN",
    "latitude": "55.04240036010742",
    "longitude": "-131.57200622558594",
    "altitude": "119",
    "timezone": "-9",
    "DST": "A",
    "destination": "America/Anchorage",
    "type": "airport",
    "source": "OurAirports"
  },
  {
    "id": "3478",
    "airportName": "Caribou Municipal Airport",
    "city": "Caribou",
    "country": "United States",
    "code": "CAR",
    "latitude": "46.871498107899995",
    "longitude": "-68.0178985596",
    "altitude": "626",
    "timezone": "-5",
    "DST": "A",
    "destination": "America/New_York",
    "type": "airport",
    "source": "OurAirports"
  },
  {
    "id": "3479",
    "airportName": "Little Rock Air Force Base",
    "city": "Jacksonville",
    "country": "United States",
    "code": "LRF",
    "latitude": "34.916900634799994",
    "longitude": "-92.14969635010002",
    "altitude": "311",
    "timezone": "-6",
    "DST": "A",
    "destination": "America/Chicago",
    "type": "airport",
    "source": "OurAirports"
  },
  {
    "id": "3480",
    "airportName": "Redstone Army Air Field",
    "city": "Redstone",
    "country": "United States",
    "code": "HUA",
    "latitude": "34.67869949",
    "longitude": "-86.68479919",
    "altitude": "684",
    "timezone": "-6",
    "DST": "A",
    "destination": "America/Chicago",
    "type": "airport",
    "source": "OurAirports"
  },
  {
    "id": "3481",
    "airportName": "Pope Field",
    "city": "Fort Bragg",
    "country": "United States",
    "code": "POB",
    "latitude": "35.1708984375",
    "longitude": "-79.014503479004",
    "altitude": "217",
    "timezone": "-5",
    "DST": "A",
    "destination": "America/New_York",
    "type": "airport",
    "source": "OurAirports"
  },
  {
    "id": "3482",
    "airportName": "Dalhart Municipal Airport",
    "city": "Dalhart",
    "country": "United States",
    "code": "DHT",
    "latitude": "36.0225982666",
    "longitude": "-102.54699707",
    "altitude": "3991",
    "timezone": "-6",
    "DST": "A",
    "destination": "America/Chicago",
    "type": "airport",
    "source": "OurAirports"
  },
  {
    "id": "3483",
    "airportName": "DLF Airport",
    "city": "Del Rio",
    "country": "United States",
    "code": "DLF",
    "latitude": "29.359501",
    "longitude": "-100.778002",
    "altitude": "1082",
    "timezone": "-6",
    "DST": "A",
    "destination": "America/Chicago",
    "type": "airport",
    "source": "OurAirports"
  },
  {
    "id": "3484",
    "airportName": "Los Angeles International Airport",
    "city": "Los Angeles",
    "country": "United States",
    "code": "LAX",
    "latitude": "33.94250107",
    "longitude": "-118.4079971",
    "altitude": "125",
    "timezone": "-8",
    "DST": "A",
    "destination": "America/Los_Angeles",
    "type": "airport",
    "source": "OurAirports"
  },
  {
    "id": "3485",
    "airportName": "Anniston Regional Airport",
    "city": "Anniston",
    "country": "United States",
    "code": "ANB",
    "latitude": "33.5882",
    "longitude": "-85.8581",
    "altitude": "612",
    "timezone": "-6",
    "DST": "A",
    "destination": "America/Chicago",
    "type": "airport",
    "source": "OurAirports"
  },
  {
    "id": "3486",
    "airportName": "Cleveland Hopkins International Airport",
    "city": "Cleveland",
    "country": "United States",
    "code": "CLE",
    "latitude": "41.4117012024",
    "longitude": "-81.8498001099",
    "altitude": "791",
    "timezone": "-5",
    "DST": "A",
    "destination": "America/New_York",
    "type": "airport",
    "source": "OurAirports"
  },
  {
    "id": "3487",
    "airportName": "Dover Air Force Base",
    "city": "Dover",
    "country": "United States",
    "code": "DOV",
    "latitude": "39.12950134",
    "longitude": "-75.46600342",
    "altitude": "24",
    "timezone": "-5",
    "DST": "A",
    "destination": "America/New_York",
    "type": "airport",
    "source": "OurAirports"
  },
  {
    "id": "3488",
    "airportName": "Cincinnati Northern Kentucky International Airport",
    "city": "Cincinnati",
    "country": "United States",
    "code": "CVG",
    "latitude": "39.0488014221",
    "longitude": "-84.6678009033",
    "altitude": "896",
    "timezone": "-5",
    "DST": "A",
    "destination": "America/New_York",
    "type": "airport",
    "source": "OurAirports"
  },
  {
    "id": "3489",
    "airportName": "Tipton Airport",
    "city": "Fort Meade",
    "country": "United States",
    "code": "FME",
    "latitude": "39.08539962769999",
    "longitude": "-76.7593994141",
    "altitude": "150",
    "timezone": "-5",
    "DST": "A",
    "destination": "America/New_York",
    "type": "airport",
    "source": "OurAirports"
  },
  {
    "id": "3491",
    "airportName": "Huron Regional Airport",
    "city": "Huron",
    "country": "United States",
    "code": "HON",
    "latitude": "44.38520050048828",
    "longitude": "-98.22850036621094",
    "altitude": "1289",
    "timezone": "-6",
    "DST": "A",
    "destination": "America/Chicago",
    "type": "airport",
    "source": "OurAirports"
  },
  {
    "id": "3492",
    "airportName": "Juneau International Airport",
    "city": "Juneau",
    "country": "United States",
    "code": "JNU",
    "latitude": "58.35499954223633",
    "longitude": "-134.5760040283203",
    "altitude": "21",
    "timezone": "-9",
    "DST": "A",
    "destination": "America/Anchorage",
    "type": "airport",
    "source": "OurAirports"
  },
  {
    "id": "3493",
    "airportName": "Lafayette Regional Airport",
    "city": "Lafayette",
    "country": "United States",
    "code": "LFT",
    "latitude": "30.20529938",
    "longitude": "-91.98760223",
    "altitude": "42",
    "timezone": "-6",
    "DST": "A",
    "destination": "America/Chicago",
    "type": "airport",
    "source": "OurAirports"
  },
  {
    "id": "3494",
    "airportName": "Newark Liberty International Airport",
    "city": "Newark",
    "country": "United States",
    "code": "EWR",
    "latitude": "40.692501068115234",
    "longitude": "-74.168701171875",
    "altitude": "18",
    "timezone": "-5",
    "DST": "A",
    "destination": "America/New_York",
    "type": "airport",
    "source": "OurAirports"
  },
  {
    "id": "3495",
    "airportName": "Boise Air Terminal/Gowen Field",
    "city": "Boise",
    "country": "United States",
    "code": "BOI",
    "latitude": "43.5644",
    "longitude": "-116.223",
    "altitude": "2871",
    "timezone": "-7",
    "DST": "A",
    "destination": "America/Denver",
    "type": "airport",
    "source": "OurAirports"
  },
  {
    "id": "3496",
    "airportName": "Creech Air Force Base",
    "city": "Indian Springs",
    "country": "United States",
    "code": "INS",
    "latitude": "36.587200164799995",
    "longitude": "-115.672996521",
    "altitude": "3133",
    "timezone": "-8",
    "DST": "A",
    "destination": "America/Los_Angeles",
    "type": "airport",
    "source": "OurAirports"
  },
  {
    "id": "3497",
    "airportName": "Garden City Regional Airport",
    "city": "Garden City",
    "country": "United States",
    "code": "GCK",
    "latitude": "37.9275016785",
    "longitude": "-100.723999023",
    "altitude": "2891",
    "timezone": "-6",
    "DST": "A",
    "destination": "America/Chicago",
    "type": "airport",
    "source": "OurAirports"
  },
  {
    "id": "3498",
    "airportName": "Minot International Airport",
    "city": "Minot",
    "country": "United States",
    "code": "MOT",
    "latitude": "48.2593994140625",
    "longitude": "-101.27999877929688",
    "altitude": "1716",
    "timezone": "-6",
    "DST": "A",
    "destination": "America/Chicago",
    "type": "airport",
    "source": "OurAirports"
  },
  {
    "id": "3499",
    "airportName": "Wheeler Army Airfield",
    "city": "Wahiawa",
    "country": "United States",
    "code": "HHI",
    "latitude": "21.48349953",
    "longitude": "-158.0399933",
    "altitude": "837",
    "timezone": "-10",
    "DST": "A",
    "destination": "Pacific/Honolulu",
    "type": "airport",
    "source": "OurAirports"
  },
  {
    "id": "3500",
    "airportName": "Maxwell Air Force Base",
    "city": "Montgomery",
    "country": "United States",
    "code": "MXF",
    "latitude": "32.3829",
    "longitude": "-86.365799",
    "altitude": "171",
    "timezone": "-6",
    "DST": "A",
    "destination": "America/Chicago",
    "type": "airport",
    "source": "OurAirports"
  },
  {
    "id": "3502",
    "airportName": "Dallas Love Field",
    "city": "Dallas",
    "country": "United States",
    "code": "DAL",
    "latitude": "32.847099",
    "longitude": "-96.851799",
    "altitude": "487",
    "timezone": "-6",
    "DST": "A",
    "destination": "America/Chicago",
    "type": "airport",
    "source": "OurAirports"
  },
  {
    "id": "3503",
    "airportName": "Butts AAF (Fort Carson) Air Field",
    "city": "Fort Carson",
    "country": "United States",
    "code": "FCS",
    "latitude": "38.67839813",
    "longitude": "-104.7570038",
    "altitude": "5838",
    "timezone": "-7",
    "DST": "A",
    "destination": "America/Denver",
    "type": "airport",
    "source": "OurAirports"
  },
  {
    "id": "3504",
    "airportName": "Helena Regional Airport",
    "city": "Helena",
    "country": "United States",
    "code": "HLN",
    "latitude": "46.6068000793457",
    "longitude": "-111.98300170898438",
    "altitude": "3877",
    "timezone": "-7",
    "DST": "A",
    "destination": "America/Denver",
    "type": "airport",
    "source": "OurAirports"
  },
  {
    "id": "3505",
    "airportName": "Miramar Marine Corps Air Station - Mitscher Field",
    "city": "Miramar",
    "country": "United States",
    "code": "NKX",
    "latitude": "32.86840057",
    "longitude": "-117.1429977",
    "altitude": "477",
    "timezone": "-8",
    "DST": "A",
    "destination": "America/Los_Angeles",
    "type": "airport",
    "source": "OurAirports"
  },
  {
    "id": "3506",
    "airportName": "Luke Air Force Base",
    "city": "Phoenix",
    "country": "United States",
    "code": "LUF",
    "latitude": "33.534999847399995",
    "longitude": "-112.383003235",
    "altitude": "1085",
    "timezone": "-7",
    "DST": "A",
    "destination": "America/Phoenix",
    "type": "airport",
    "source": "OurAirports"
  },
  {
    "id": "3508",
    "airportName": "Jack Northrop Field Hawthorne Municipal Airport",
    "city": "Hawthorne",
    "country": "United States",
    "code": "HHR",
    "latitude": "33.922798",
    "longitude": "-118.334999",
    "altitude": "66",
    "timezone": "-8",
    "DST": "A",
    "destination": "America/Los_Angeles",
    "type": "airport",
    "source": "OurAirports"
  },
  {
    "id": "3509",
    "airportName": "Houlton International Airport",
    "city": "Houlton",
    "country": "United States",
    "code": "HUL",
    "latitude": "46.1231002808",
    "longitude": "-67.792098999",
    "altitude": "489",
    "timezone": "-5",
    "DST": "A",
    "destination": "America/New_York",
    "type": "airport",
    "source": "OurAirports"
  },
  {
    "id": "3510",
    "airportName": "Vance Air Force Base",
    "city": "Enid",
    "country": "United States",
    "code": "END",
    "latitude": "36.339199066199996",
    "longitude": "-97.9164962769",
    "altitude": "1307",
    "timezone": "-6",
    "DST": "A",
    "destination": "America/Chicago",
    "type": "airport",
    "source": "OurAirports"
  },
  {
    "id": "3511",
    "airportName": "Point Mugu Naval Air Station (Naval Base Ventura Co)",
    "city": "Point Mugu",
    "country": "United States",
    "code": "NTD",
    "latitude": "34.120300293",
    "longitude": "-119.121002197",
    "altitude": "13",
    "timezone": "-8",
    "DST": "A",
    "destination": "America/Los_Angeles",
    "type": "airport",
    "source": "OurAirports"
  },
  {
    "id": "3512",
    "airportName": "Edwards Air Force Base",
    "city": "Edwards Afb",
    "country": "United States",
    "code": "EDW",
    "latitude": "34.905399",
    "longitude": "-117.884003",
    "altitude": "2312",
    "timezone": "-8",
    "DST": "A",
    "destination": "America/Los_Angeles",
    "type": "airport",
    "source": "OurAirports"
  },
  {
    "id": "3513",
    "airportName": "Lake Charles Regional Airport",
    "city": "Lake Charles",
    "country": "United States",
    "code": "LCH",
    "latitude": "30.126100540161133",
    "longitude": "-93.22329711914062",
    "altitude": "15",
    "timezone": "-6",
    "DST": "A",
    "destination": "America/Chicago",
    "type": "airport",
    "source": "OurAirports"
  },
  {
    "id": "3514",
    "airportName": "Ellison Onizuka Kona International At Keahole Airport",
    "city": "Kona",
    "country": "United States",
    "code": "KOA",
    "latitude": "19.738783",
    "longitude": "-156.045603",
    "altitude": "47",
    "timezone": "-10",
    "DST": "N",
    "destination": "Pacific/Honolulu",
    "type": "airport",
    "source": "OurAirports"
  },
  {
    "id": "3515",
    "airportName": "Myrtle Beach International Airport",
    "city": "Myrtle Beach",
    "country": "United States",
    "code": "MYR",
    "latitude": "33.6796989441",
    "longitude": "-78.9282989502",
    "altitude": "25",
    "timezone": "-5",
    "DST": "A",
    "destination": "America/New_York",
    "type": "airport",
    "source": "OurAirports"
  },
  {
    "id": "3516",
    "airportName": "Lemoore Naval Air Station (Reeves Field) Airport",
    "city": "Lemoore",
    "country": "United States",
    "code": "NLC",
    "latitude": "36.33300018",
    "longitude": "-119.9520035",
    "altitude": "232",
    "timezone": "-8",
    "DST": "A",
    "destination": "America/Los_Angeles",
    "type": "airport",
    "source": "OurAirports"
  },
  {
    "id": "3517",
    "airportName": "Nantucket Memorial Airport",
    "city": "Nantucket",
    "country": "United States",
    "code": "ACK",
    "latitude": "41.25310135",
    "longitude": "-70.06020355",
    "altitude": "47",
    "timezone": "-5",
    "DST": "A",
    "destination": "America/New_York",
    "type": "airport",
    "source": "OurAirports"
  },
  {
    "id": "3518",
    "airportName": "Felker Army Air Field",
    "city": "Fort Eustis",
    "country": "United States",
    "code": "FAF",
    "latitude": "37.132499694799996",
    "longitude": "-76.60880279540001",
    "altitude": "12",
    "timezone": "-5",
    "DST": "A",
    "destination": "America/New_York",
    "type": "airport",
    "source": "OurAirports"
  },
  {
    "id": "3519",
    "airportName": "Campbell AAF (Fort Campbell) Air Field",
    "city": "Hopkinsville",
    "country": "United States",
    "code": "HOP",
    "latitude": "36.668598175",
    "longitude": "-87.49620056150002",
    "altitude": "573",
    "timezone": "-6",
    "DST": "A",
    "destination": "America/Chicago",
    "type": "airport",
    "source": "OurAirports"
  },
  {
    "id": "3520",
    "airportName": "Ronald Reagan Washington National Airport",
    "city": "Washington",
    "country": "United States",
    "code": "DCA",
    "latitude": "38.8521",
    "longitude": "-77.037697",
    "altitude": "15",
    "timezone": "-5",
    "DST": "A",
    "destination": "America/New_York",
    "type": "airport",
    "source": "OurAirports"
  },
  {
    "id": "3521",
    "airportName": "Patuxent River Naval Air Station (Trapnell Field)",
    "city": "Patuxent River",
    "country": "United States",
    "code": "NHK",
    "latitude": "38.285999",
    "longitude": "-76.411797",
    "altitude": "39",
    "timezone": "-5",
    "DST": "A",
    "destination": "America/New_York",
    "type": "airport",
    "source": "OurAirports"
  },
  {
    "id": "3522",
    "airportName": "Palacios Municipal Airport",
    "city": "Palacios",
    "country": "United States",
    "code": "PSX",
    "latitude": "28.727500915527",
    "longitude": "-96.250999450684",
    "altitude": "14",
    "timezone": "-6",
    "DST": "A",
    "destination": "America/Chicago",
    "type": "airport",
    "source": "OurAirports"
  },
  {
    "id": "3523",
    "airportName": "Arkansas International Airport",
    "city": "Blytheville",
    "country": "United States",
    "code": "BYH",
    "latitude": "35.9642982483",
    "longitude": "-89.94400024410001",
    "altitude": "254",
    "timezone": "-6",
    "DST": "A",
    "destination": "America/Chicago",
    "type": "airport",
    "source": "OurAirports"
  },
  {
    "id": "3524",
    "airportName": "Atlantic City International Airport",
    "city": "Atlantic City",
    "country": "United States",
    "code": "ACY",
    "latitude": "39.45759963989258",
    "longitude": "-74.57720184326172",
    "altitude": "75",
    "timezone": "-5",
    "DST": "A",
    "destination": "America/New_York",
    "type": "airport",
    "source": "OurAirports"
  },
  {
    "id": "3525",
    "airportName": "Tinker Air Force Base",
    "city": "Oklahoma City",
    "country": "United States",
    "code": "TIK",
    "latitude": "35.414699554443",
    "longitude": "-97.386596679688",
    "altitude": "1291",
    "timezone": "-6",
    "DST": "A",
    "destination": "America/Chicago",
    "type": "airport",
    "source": "OurAirports"
  },
  {
    "id": "3526",
    "airportName": "Elizabeth City Regional Airport & Coast Guard Air Station",
    "city": "Elizabeth City",
    "country": "United States",
    "code": "ECG",
    "latitude": "36.26060104",
    "longitude": "-76.17459869",
    "altitude": "12",
    "timezone": "-5",
    "DST": "A",
    "destination": "America/New_York",
    "type": "airport",
    "source": "OurAirports"
  },
  {
    "id": "3527",
    "airportName": "Pueblo Memorial Airport",
    "city": "Pueblo",
    "country": "United States",
    "code": "PUB",
    "latitude": "38.289100646972656",
    "longitude": "-104.49700164794922",
    "altitude": "4726",
    "timezone": "-7",
    "DST": "A",
    "destination": "America/Denver",
    "type": "airport",
    "source": "OurAirports"
  },
  {
    "id": "3528",
    "airportName": "Northern Maine Regional Airport at Presque Isle",
    "city": "Presque Isle",
    "country": "United States",
    "code": "PQI",
    "latitude": "46.68899918",
    "longitude": "-68.0447998",
    "altitude": "534",
    "timezone": "-5",
    "DST": "A",
    "destination": "America/New_York",
    "type": "airport",
    "source": "OurAirports"
  },
  {
    "id": "3530",
    "airportName": "Gray Army Air Field",
    "city": "Fort Lewis",
    "country": "United States",
    "code": "GRF",
    "latitude": "47.07920074",
    "longitude": "-122.5810013",
    "altitude": "300",
    "timezone": "-8",
    "DST": "A",
    "destination": "America/Los_Angeles",
    "type": "airport",
    "source": "OurAirports"
  },
  {
    "id": "3531",
    "airportName": "Kodiak Airport",
    "city": "Kodiak",
    "country": "United States",
    "code": "ADQ",
    "latitude": "57.75",
    "longitude": "-152.4940033",
    "altitude": "78",
    "timezone": "-9",
    "DST": "A",
    "destination": "America/Anchorage",
    "type": "airport",
    "source": "OurAirports"
  },
  {
    "id": "3532",
    "airportName": "Upolu Airport",
    "city": "Opolu",
    "country": "United States",
    "code": "UPP",
    "latitude": "20.265300750732422",
    "longitude": "-155.86000061035156",
    "altitude": "96",
    "timezone": "-10",
    "DST": "A",
    "destination": "Pacific/Honolulu",
    "type": "airport",
    "source": "OurAirports"
  },
  {
    "id": "3533",
    "airportName": "Fort Lauderdale Hollywood International Airport",
    "city": "Fort Lauderdale",
    "country": "United States",
    "code": "FLL",
    "latitude": "26.072599",
    "longitude": "-80.152702",
    "altitude": "9",
    "timezone": "-5",
    "DST": "A",
    "destination": "America/New_York",
    "type": "airport",
    "source": "OurAirports"
  },
  {
    "id": "3535",
    "airportName": "Falls International Airport",
    "city": "International Falls",
    "country": "United States",
    "code": "INL",
    "latitude": "48.566200256347656",
    "longitude": "-93.4030990600586",
    "altitude": "1185",
    "timezone": "-6",
    "DST": "A",
    "destination": "America/Chicago",
    "type": "airport",
    "source": "OurAirports"
  },
  {
    "id": "3536",
    "airportName": "Salt Lake City International Airport",
    "city": "Salt Lake City",
    "country": "United States",
    "code": "SLC",
    "latitude": "40.78839874267578",
    "longitude": "-111.97799682617188",
    "altitude": "4227",
    "timezone": "-7",
    "DST": "A",
    "destination": "America/Denver",
    "type": "airport",
    "source": "OurAirports"
  },
  {
    "id": "3537",
    "airportName": "Childress Municipal Airport",
    "city": "Childress",
    "country": "United States",
    "code": "CDS",
    "latitude": "34.4337997437",
    "longitude": "-100.288002014",
    "altitude": "1954",
    "timezone": "-6",
    "DST": "A",
    "destination": "America/Chicago",
    "type": "airport",
    "source": "OurAirports"
  },
  {
    "id": "3538",
    "airportName": "Keesler Air Force Base",
    "city": "Biloxi",
    "country": "United States",
    "code": "BIX",
    "latitude": "30.4104003906",
    "longitude": "-88.92440032959999",
    "altitude": "33",
    "timezone": "-6",
    "DST": "A",
    "destination": "America/Chicago",
    "type": "airport",
    "source": "OurAirports"
  },
  {
    "id": "3539",
    "airportName": "Lawson Army Air Field (Fort Benning)",
    "city": "Fort Benning",
    "country": "United States",
    "code": "LSF",
    "latitude": "32.337299346900004",
    "longitude": "-84.9913024902",
    "altitude": "232",
    "timezone": "-5",
    "DST": "A",
    "destination": "America/New_York",
    "type": "airport",
    "source": "OurAirports"
  },
  {
    "id": "3540",
    "airportName": "Kingsville Naval Air Station",
    "city": "Kingsville",
    "country": "United States",
    "code": "NQI",
    "latitude": "27.5072002411",
    "longitude": "-97.8097000122",
    "altitude": "50",
    "timezone": "-6",
    "DST": "A",
    "destination": "America/Chicago",
    "type": "airport",
    "source": "OurAirports"
  },
  {
    "id": "3541",
    "airportName": "Marshall Army Air Field",
    "city": "Fort Riley",
    "country": "United States",
    "code": "FRI",
    "latitude": "39.05530167",
    "longitude": "-96.76450348",
    "altitude": "1065",
    "timezone": "-6",
    "DST": "A",
    "destination": "America/Chicago",
    "type": "airport",
    "source": "OurAirports"
  },
  {
    "id": "3542",
    "airportName": "Harrisburg International Airport",
    "city": "Harrisburg",
    "country": "United States",
    "code": "MDT",
    "latitude": "40.1935005188",
    "longitude": "-76.7633972168",
    "altitude": "310",
    "timezone": "-5",
    "DST": "A",
    "destination": "America/New_York",
    "type": "airport",
    "source": "OurAirports"
  },
  {
    "id": "3543",
    "airportName": "Lincoln Airport",
    "city": "Lincoln",
    "country": "United States",
    "code": "LNK",
    "latitude": "40.85100173950195",
    "longitude": "-96.75920104980469",
    "altitude": "1219",
    "timezone": "-6",
    "DST": "A",
    "destination": "America/Chicago",
    "type": "airport",
    "source": "OurAirports"
  },
  {
    "id": "3544",
    "airportName": "Capital City Airport",
    "city": "Lansing",
    "country": "United States",
    "code": "LAN",
    "latitude": "42.77870178222656",
    "longitude": "-84.58740234375",
    "altitude": "861",
    "timezone": "-5",
    "DST": "A",
    "destination": "America/New_York",
    "type": "airport",
    "source": "OurAirports"
  },
  {
    "id": "3545",
    "airportName": "Waimea Kohala Airport",
    "city": "Kamuela",
    "country": "United States",
    "code": "MUE",
    "latitude": "20.001300811767578",
    "longitude": "-155.66799926757812",
    "altitude": "2671",
    "timezone": "-10",
    "DST": "A",
    "destination": "Pacific/Honolulu",
    "type": "airport",
    "source": "OurAirports"
  },
  {
    "id": "3546",
    "airportName": "Massena International Richards Field",
    "city": "Massena",
    "country": "United States",
    "code": "MSS",
    "latitude": "44.93579864501953",
    "longitude": "-74.84559631347656",
    "altitude": "215",
    "timezone": "-5",
    "DST": "A",
    "destination": "America/New_York",
    "type": "airport",
    "source": "OurAirports"
  },
  {
    "id": "3547",
    "airportName": "Hickory Regional Airport",
    "city": "Hickory",
    "country": "United States",
    "code": "HKY",
    "latitude": "35.74110031",
    "longitude": "-81.38950348",
    "altitude": "1190",
    "timezone": "-5",
    "DST": "A",
    "destination": "America/New_York",
    "type": "airport",
    "source": "OurAirports"
  },
  {
    "id": "3548",
    "airportName": "Albert Whitted Airport",
    "city": "St. Petersburg",
    "country": "United States",
    "code": "SPG",
    "latitude": "27.7651",
    "longitude": "-82.626999",
    "altitude": "7",
    "timezone": "-5",
    "DST": "A",
    "destination": "America/New_York",
    "type": "airport",
    "source": "OurAirports"
  },
  {
    "id": "3549",
    "airportName": "Page Field",
    "city": "Fort Myers",
    "country": "United States",
    "code": "FMY",
    "latitude": "26.58659935",
    "longitude": "-81.86329650879999",
    "altitude": "17",
    "timezone": "-5",
    "DST": "A",
    "destination": "America/New_York",
    "type": "airport",
    "source": "OurAirports"
  },
  {
    "id": "3550",
    "airportName": "George Bush Intercontinental Houston Airport",
    "city": "Houston",
    "country": "United States",
    "code": "IAH",
    "latitude": "29.984399795532227",
    "longitude": "-95.34140014648438",
    "altitude": "97",
    "timezone": "-6",
    "DST": "A",
    "destination": "America/Chicago",
    "type": "airport",
    "source": "OurAirports"
  },
  {
    "id": "3552",
    "airportName": "Joint Base Andrews",
    "city": "Camp Springs",
    "country": "United States",
    "code": "ADW",
    "latitude": "38.810799",
    "longitude": "-76.866997",
    "altitude": "280",
    "timezone": "-5",
    "DST": "A",
    "destination": "America/New_York",
    "type": "airport",
    "source": "OurAirports"
  },
  {
    "id": "3553",
    "airportName": "Smith Reynolds Airport",
    "city": "Winston-salem",
    "country": "United States",
    "code": "INT",
    "latitude": "36.13370132446289",
    "longitude": "-80.22200012207031",
    "altitude": "969",
    "timezone": "-5",
    "DST": "A",
    "destination": "America/New_York",
    "type": "airport",
    "source": "OurAirports"
  },
  {
    "id": "3554",
    "airportName": "Southern California Logistics Airport",
    "city": "Victorville",
    "country": "United States",
    "code": "VCV",
    "latitude": "34.597499847399995",
    "longitude": "-117.383003235",
    "altitude": "2885",
    "timezone": "-8",
    "DST": "A",
    "destination": "America/Los_Angeles",
    "type": "airport",
    "source": "OurAirports"
  },
  {
    "id": "3555",
    "airportName": "Bob Sikes Airport",
    "city": "Crestview",
    "country": "United States",
    "code": "CEW",
    "latitude": "30.778799057",
    "longitude": "-86.522102356",
    "altitude": "213",
    "timezone": "-6",
    "DST": "A",
    "destination": "America/Chicago",
    "type": "airport",
    "source": "OurAirports"
  },
  {
    "id": "3557",
    "airportName": "St Clair County International Airport",
    "city": "Port Huron",
    "country": "United States",
    "code": "PHN",
    "latitude": "42.9109993",
    "longitude": "-82.52890015",
    "altitude": "650",
    "timezone": "-5",
    "DST": "A",
    "destination": "America/New_York",
    "type": "airport",
    "source": "OurAirports"
  },
  {
    "id": "3558",
    "airportName": "Meadows Field",
    "city": "Bakersfield",
    "country": "United States",
    "code": "BFL",
    "latitude": "35.43360138",
    "longitude": "-119.0569992",
    "altitude": "510",
    "timezone": "-8",
    "DST": "A",
    "destination": "America/Los_Angeles",
    "type": "airport",
    "source": "OurAirports"
  },
  {
    "id": "3559",
    "airportName": "El Paso International Airport",
    "city": "El Paso",
    "country": "United States",
    "code": "ELP",
    "latitude": "31.80719948",
    "longitude": "-106.3779984",
    "altitude": "3959",
    "timezone": "-7",
    "DST": "A",
    "destination": "America/Denver",
    "type": "airport",
    "source": "OurAirports"
  },
  {
    "id": "3560",
    "airportName": "Valley International Airport",
    "city": "Harlingen",
    "country": "United States",
    "code": "HRL",
    "latitude": "26.228500366210938",
    "longitude": "-97.65440368652344",
    "altitude": "36",
    "timezone": "-6",
    "DST": "A",
    "destination": "America/Chicago",
    "type": "airport",
    "source": "OurAirports"
  },
  {
    "id": "3561",
    "airportName": "Columbia Metropolitan Airport",
    "city": "Columbia",
    "country": "United States",
    "code": "CAE",
    "latitude": "33.93880081176758",
    "longitude": "-81.11949920654297",
    "altitude": "236",
    "timezone": "-5",
    "DST": "A",
    "destination": "America/New_York",
    "type": "airport",
    "source": "OurAirports"
  },
  {
    "id": "3562",
    "airportName": "Davis Monthan Air Force Base",
    "city": "Tucson",
    "country": "United States",
    "code": "DMA",
    "latitude": "32.1665000916",
    "longitude": "-110.883003235",
    "altitude": "2704",
    "timezone": "-7",
    "DST": "A",
    "destination": "America/Phoenix",
    "type": "airport",
    "source": "OurAirports"
  },
  {
    "id": "3563",
    "airportName": "Pensacola Naval Air Station/Forrest Sherman Field",
    "city": "Pensacola",
    "country": "United States",
    "code": "NPA",
    "latitude": "30.35269928",
    "longitude": "-87.31860352",
    "altitude": "28",
    "timezone": "-6",
    "DST": "A",
    "destination": "America/Chicago",
    "type": "airport",
    "source": "OurAirports"
  },
  {
    "id": "3564",
    "airportName": "Pensacola Regional Airport",
    "city": "Pensacola",
    "country": "United States",
    "code": "PNS",
    "latitude": "30.473400115967",
    "longitude": "-87.186599731445",
    "altitude": "121",
    "timezone": "-6",
    "DST": "A",
    "destination": "America/Chicago",
    "type": "airport",
    "source": "OurAirports"
  },
  {
    "id": "3565",
    "airportName": "Grand Forks Air Force Base",
    "city": "Red River",
    "country": "United States",
    "code": "RDR",
    "latitude": "47.961101532",
    "longitude": "-97.4011993408",
    "altitude": "913",
    "timezone": "-6",
    "DST": "A",
    "destination": "America/Chicago",
    "type": "airport",
    "source": "OurAirports"
  },
  {
    "id": "3566",
    "airportName": "William P Hobby Airport",
    "city": "Houston",
    "country": "United States",
    "code": "HOU",
    "latitude": "29.64539909",
    "longitude": "-95.27890015",
    "altitude": "46",
    "timezone": "-6",
    "DST": "A",
    "destination": "America/Chicago",
    "type": "airport",
    "source": "OurAirports"
  },
  {
    "id": "3567",
    "airportName": "Buckley Air Force Base",
    "city": "Buckley",
    "country": "United States",
    "code": "BFK",
    "latitude": "39.701698303200004",
    "longitude": "-104.751998901",
    "altitude": "5662",
    "timezone": "-7",
    "DST": "A",
    "destination": "America/Denver",
    "type": "airport",
    "source": "OurAirports"
  },
  {
    "id": "3568",
    "airportName": "Northway Airport",
    "city": "Northway",
    "country": "United States",
    "code": "ORT",
    "latitude": "62.9612999",
    "longitude": "-141.9290009",
    "altitude": "1715",
    "timezone": "-9",
    "DST": "A",
    "destination": "America/Anchorage",
    "type": "airport",
    "source": "OurAirports"
  },
  {
    "id": "3569",
    "airportName": "Warren \"Bud\" Woods Palmer Municipal Airport",
    "city": "Palmer",
    "country": "United States",
    "code": "PAQ",
    "latitude": "61.594898",
    "longitude": "-149.08901",
    "altitude": "242",
    "timezone": "-9",
    "DST": "A",
    "destination": "America/Anchorage",
    "type": "airport",
    "source": "OurAirports"
  },
  {
    "id": "3570",
    "airportName": "Pittsburgh International Airport",
    "city": "Pittsburgh",
    "country": "United States",
    "code": "PIT",
    "latitude": "40.49150085",
    "longitude": "-80.23290253",
    "altitude": "1203",
    "timezone": "-5",
    "DST": "A",
    "destination": "America/New_York",
    "type": "airport",
    "source": "OurAirports"
  },
  {
    "id": "3571",
    "airportName": "Wiley Post Will Rogers Memorial Airport",
    "city": "Barrow",
    "country": "United States",
    "code": "BRW",
    "latitude": "71.285402",
    "longitude": "-156.766008",
    "altitude": "44",
    "timezone": "-9",
    "DST": "A",
    "destination": "America/Anchorage",
    "type": "airport",
    "source": "OurAirports"
  },
  {
    "id": "3572",
    "airportName": "Ellington Airport",
    "city": "Houston",
    "country": "United States",
    "code": "EFD",
    "latitude": "29.607299804700002",
    "longitude": "-95.1587982178",
    "altitude": "32",
    "timezone": "-6",
    "DST": "A",
    "destination": "America/Chicago",
    "type": "airport",
    "source": "OurAirports"
  },
  {
    "id": "3573",
    "airportName": "Whidbey Island Naval Air Station (Ault Field)",
    "city": "Whidbey Island",
    "country": "United States",
    "code": "NUW",
    "latitude": "48.351799",
    "longitude": "-122.655998",
    "altitude": "47",
    "timezone": "-8",
    "DST": "A",
    "destination": "America/Los_Angeles",
    "type": "airport",
    "source": "OurAirports"
  },
  {
    "id": "3574",
    "airportName": "Alice International Airport",
    "city": "Alice",
    "country": "United States",
    "code": "ALI",
    "latitude": "27.740900039699998",
    "longitude": "-98.02690124510002",
    "altitude": "178",
    "timezone": "-6",
    "DST": "A",
    "destination": "America/Chicago",
    "type": "airport",
    "source": "OurAirports"
  },
  {
    "id": "3575",
    "airportName": "Moody Air Force Base",
    "city": "Valdosta",
    "country": "United States",
    "code": "VAD",
    "latitude": "30.9678001404",
    "longitude": "-83.1930007935",
    "altitude": "233",
    "timezone": "-5",
    "DST": "A",
    "destination": "America/New_York",
    "type": "airport",
    "source": "OurAirports"
  },
  {
    "id": "3576",
    "airportName": "Miami International Airport",
    "city": "Miami",
    "country": "United States",
    "code": "MIA",
    "latitude": "25.79319953918457",
    "longitude": "-80.29060363769531",
    "altitude": "8",
    "timezone": "-5",
    "DST": "A",
    "destination": "America/New_York",
    "type": "airport",
    "source": "OurAirports"
  },
  {
    "id": "3577",
    "airportName": "Seattle Tacoma International Airport",
    "city": "Seattle",
    "country": "United States",
    "code": "SEA",
    "latitude": "47.449001",
    "longitude": "-122.308998",
    "altitude": "433",
    "timezone": "-8",
    "DST": "A",
    "destination": "America/Los_Angeles",
    "type": "airport",
    "source": "OurAirports"
  },
  {
    "id": "3578",
    "airportName": "Lovell Field",
    "city": "Chattanooga",
    "country": "United States",
    "code": "CHA",
    "latitude": "35.035301208496094",
    "longitude": "-85.20379638671875",
    "altitude": "683",
    "timezone": "-5",
    "DST": "A",
    "destination": "America/New_York",
    "type": "airport",
    "source": "OurAirports"
  },
  {
    "id": "3579",
    "airportName": "Igor I Sikorsky Memorial Airport",
    "city": "Stratford",
    "country": "United States",
    "code": "BDR",
    "latitude": "41.16350173950195",
    "longitude": "-73.1261978149414",
    "altitude": "9",
    "timezone": "-5",
    "DST": "A",
    "destination": "America/New_York",
    "type": "airport",
    "source": "OurAirports"
  },
  {
    "id": "3580",
    "airportName": "Jackson-Medgar Wiley Evers International Airport",
    "city": "Jackson",
    "country": "United States",
    "code": "JAN",
    "latitude": "32.3111991882",
    "longitude": "-90.0758972168",
    "altitude": "346",
    "timezone": "-6",
    "DST": "A",
    "destination": "America/Chicago",
    "type": "airport",
    "source": "OurAirports"
  },
  {
    "id": "3581",
    "airportName": "Scholes International At Galveston Airport",
    "city": "Galveston",
    "country": "United States",
    "code": "GLS",
    "latitude": "29.265300750732422",
    "longitude": "-94.86039733886719",
    "altitude": "6",
    "timezone": "-6",
    "DST": "A",
    "destination": "America/Chicago",
    "type": "airport",
    "source": "OurAirports"
  },
  {
    "id": "3582",
    "airportName": "Long Beach /Daugherty Field/ Airport",
    "city": "Long Beach",
    "country": "United States",
    "code": "LGB",
    "latitude": "33.81769943",
    "longitude": "-118.1520004",
    "altitude": "60",
    "timezone": "-8",
    "DST": "A",
    "destination": "America/Los_Angeles",
    "type": "airport",
    "source": "OurAirports"
  },
  {
    "id": "3583",
    "airportName": "Dillingham Airfield",
    "city": "Dillingham",
    "country": "United States",
    "code": "HDH",
    "latitude": "21.5795001984",
    "longitude": "-158.197006226",
    "altitude": "14",
    "timezone": "-10",
    "DST": "A",
    "destination": "Pacific/Honolulu",
    "type": "airport",
    "source": "OurAirports"
  },
  {
    "id": "3584",
    "airportName": "Williamsport Regional Airport",
    "city": "Williamsport",
    "country": "United States",
    "code": "IPT",
    "latitude": "41.241798400878906",
    "longitude": "-76.92109680175781",
    "altitude": "529",
    "timezone": "-5",
    "DST": "A",
    "destination": "America/New_York",
    "type": "airport",
    "source": "OurAirports"
  },
  {
    "id": "3585",
    "airportName": "Indianapolis International Airport",
    "city": "Indianapolis",
    "country": "United States",
    "code": "IND",
    "latitude": "39.7173",
    "longitude": "-86.294403",
    "altitude": "797",
    "timezone": "-5",
    "DST": "A",
    "destination": "America/New_York",
    "type": "airport",
    "source": "OurAirports"
  },
  {
    "id": "3586",
    "airportName": "Whiteman Air Force Base",
    "city": "Knobnoster",
    "country": "United States",
    "code": "SZL",
    "latitude": "38.73030090332",
    "longitude": "-93.547897338867",
    "altitude": "870",
    "timezone": "-6",
    "DST": "A",
    "destination": "America/Chicago",
    "type": "airport",
    "source": "OurAirports"
  },
  {
    "id": "3587",
    "airportName": "Akron Fulton International Airport",
    "city": "Akron",
    "country": "United States",
    "code": "AKC",
    "latitude": "41.0374984741",
    "longitude": "-81.4669036865",
    "altitude": "1067",
    "timezone": "-5",
    "DST": "A",
    "destination": "America/New_York",
    "type": "airport",
    "source": "OurAirports"
  },
  {
    "id": "3588",
    "airportName": "Greenwood–Leflore Airport",
    "city": "Greenwood",
    "country": "United States",
    "code": "GWO",
    "latitude": "33.4943008423",
    "longitude": "-90.0847015381",
    "altitude": "162",
    "timezone": "-6",
    "DST": "A",
    "destination": "America/Chicago",
    "type": "airport",
    "source": "OurAirports"
  },
  {
    "id": "3589",
    "airportName": "Westchester County Airport",
    "city": "White Plains",
    "country": "United States",
    "code": "HPN",
    "latitude": "41.06700134277344",
    "longitude": "-73.70760345458984",
    "altitude": "439",
    "timezone": "-5",
    "DST": "A",
    "destination": "America/New_York",
    "type": "airport",
    "source": "OurAirports"
  },
  {
    "id": "3590",
    "airportName": "Francis S Gabreski Airport",
    "city": "West Hampton Beach",
    "country": "United States",
    "code": "FOK",
    "latitude": "40.8437004089",
    "longitude": "-72.6317977905",
    "altitude": "67",
    "timezone": "-5",
    "DST": "A",
    "destination": "America/New_York",
    "type": "airport",
    "source": "OurAirports"
  },
  {
    "id": "3591",
    "airportName": "Jonesboro Municipal Airport",
    "city": "Jonesboro",
    "country": "United States",
    "code": "JBR",
    "latitude": "35.83169937133789",
    "longitude": "-90.64640045166016",
    "altitude": "262",
    "timezone": "-6",
    "DST": "A",
    "destination": "America/Chicago",
    "type": "airport",
    "source": "OurAirports"
  },
  {
    "id": "3592",
    "airportName": "Tonopah Test Range Airport",
    "city": "Tonopah",
    "country": "United States",
    "code": "XSD",
    "latitude": "37.7988014221",
    "longitude": "-116.78099823",
    "altitude": "5549",
    "timezone": "-8",
    "DST": "A",
    "destination": "America/Los_Angeles",
    "type": "airport",
    "source": "OurAirports"
  },
  {
    "id": "3593",
    "airportName": "Palm Beach County Park Airport",
    "city": "West Palm Beach",
    "country": "United States",
    "code": "LNA",
    "latitude": "26.59300041",
    "longitude": "-80.08509827",
    "altitude": "14",
    "timezone": "-5",
    "DST": "A",
    "destination": "America/New_York",
    "type": "airport",
    "source": "OurAirports"
  },
  {
    "id": "3594",
    "airportName": "North Island Naval Air Station-Halsey Field",
    "city": "San Diego",
    "country": "United States",
    "code": "NZY",
    "latitude": "32.69919968",
    "longitude": "-117.2149963",
    "altitude": "26",
    "timezone": "-8",
    "DST": "A",
    "destination": "America/Los_Angeles",
    "type": "airport",
    "source": "OurAirports"
  },
  {
    "id": "3595",
    "airportName": "Biggs Army Air Field (Fort Bliss)",
    "city": "El Paso",
    "country": "United States",
    "code": "BIF",
    "latitude": "31.84950066",
    "longitude": "-106.3799973",
    "altitude": "3946",
    "timezone": "-7",
    "DST": "A",
    "destination": "America/Denver",
    "type": "airport",
    "source": "OurAirports"
  },
  {
    "id": "3596",
    "airportName": "Yuma MCAS/Yuma International Airport",
    "city": "Yuma",
    "country": "United States",
    "code": "YUM",
    "latitude": "32.65660095",
    "longitude": "-114.6060028",
    "altitude": "213",
    "timezone": "-7",
    "DST": "N",
    "destination": "America/Phoenix",
    "type": "airport",
    "source": "OurAirports"
  },
  {
    "id": "3597",
    "airportName": "Cavern City Air Terminal",
    "city": "Carlsbad",
    "country": "United States",
    "code": "CNM",
    "latitude": "32.337501525878906",
    "longitude": "-104.26300048828125",
    "altitude": "3295",
    "timezone": "-7",
    "DST": "A",
    "destination": "America/Denver",
    "type": "airport",
    "source": "OurAirports"
  },
  {
    "id": "3598",
    "airportName": "Duluth International Airport",
    "city": "Duluth",
    "country": "United States",
    "code": "DLH",
    "latitude": "46.8420982361",
    "longitude": "-92.19360351559999",
    "altitude": "1428",
    "timezone": "-6",
    "DST": "A",
    "destination": "America/Chicago",
    "type": "airport",
    "source": "OurAirports"
  },
  {
    "id": "3599",
    "airportName": "Bethel Airport",
    "city": "Bethel",
    "country": "United States",
    "code": "BET",
    "latitude": "60.77980042",
    "longitude": "-161.8379974",
    "altitude": "126",
    "timezone": "-9",
    "DST": "A",
    "destination": "America/Anchorage",
    "type": "airport",
    "source": "OurAirports"
  },
  {
    "id": "3600",
    "airportName": "Bowman Field",
    "city": "Louisville",
    "country": "United States",
    "code": "LOU",
    "latitude": "38.2280006409",
    "longitude": "-85.6636962891",
    "altitude": "546",
    "timezone": "-5",
    "DST": "A",
    "destination": "America/New_York",
    "type": "airport",
    "source": "OurAirports"
  },
  {
    "id": "3601",
    "airportName": "Sierra Vista Municipal Libby Army Air Field",
    "city": "Fort Huachuca",
    "country": "United States",
    "code": "FHU",
    "latitude": "31.588499069213867",
    "longitude": "-110.34400177001953",
    "altitude": "4719",
    "timezone": "-7",
    "DST": "A",
    "destination": "America/Phoenix",
    "type": "airport",
    "source": "OurAirports"
  },
  {
    "id": "3602",
    "airportName": "Lihue Airport",
    "city": "Lihue",
    "country": "United States",
    "code": "LIH",
    "latitude": "21.97599983215332",
    "longitude": "-159.33900451660156",
    "altitude": "153",
    "timezone": "-10",
    "DST": "N",
    "destination": "Pacific/Honolulu",
    "type": "airport",
    "source": "OurAirports"
  },
  {
    "id": "3603",
    "airportName": "Terre Haute Regional Airport, Hulman Field",
    "city": "Terre Haute",
    "country": "United States",
    "code": "HUF",
    "latitude": "39.4515",
    "longitude": "-87.307602",
    "altitude": "589",
    "timezone": "-5",
    "DST": "A",
    "destination": "America/New_York",
    "type": "airport",
    "source": "OurAirports"
  },
  {
    "id": "3604",
    "airportName": "Havre City County Airport",
    "city": "Havre",
    "country": "United States",
    "code": "HVR",
    "latitude": "48.54299927",
    "longitude": "-109.762001",
    "altitude": "2591",
    "timezone": "-7",
    "DST": "A",
    "destination": "America/Denver",
    "type": "airport",
    "source": "OurAirports"
  },
  {
    "id": "3605",
    "airportName": "Grant County International Airport",
    "city": "Grant County Airport",
    "country": "United States",
    "code": "MWH",
    "latitude": "47.20769882",
    "longitude": "-119.3199997",
    "altitude": "1189",
    "timezone": "-8",
    "DST": "A",
    "destination": "America/Los_Angeles",
    "type": "airport",
    "source": "OurAirports"
  },
  {
    "id": "3606",
    "airportName": "Edward F Knapp State Airport",
    "city": "Montpelier",
    "country": "United States",
    "code": "MPV",
    "latitude": "44.20349884",
    "longitude": "-72.56230164",
    "altitude": "1166",
    "timezone": "-5",
    "DST": "A",
    "destination": "America/New_York",
    "type": "airport",
    "source": "OurAirports"
  },
  {
    "id": "3608",
    "airportName": "Richmond International Airport",
    "city": "Richmond",
    "country": "United States",
    "code": "RIC",
    "latitude": "37.50519943237305",
    "longitude": "-77.3197021484375",
    "altitude": "167",
    "timezone": "-5",
    "DST": "A",
    "destination": "America/New_York",
    "type": "airport",
    "source": "OurAirports"
  },
  {
    "id": "3609",
    "airportName": "Shreveport Regional Airport",
    "city": "Shreveport",
    "country": "United States",
    "code": "SHV",
    "latitude": "32.446602",
    "longitude": "-93.8256",
    "altitude": "258",
    "timezone": "-6",
    "DST": "A",
    "destination": "America/Chicago",
    "type": "airport",
    "source": "OurAirports"
  },
  {
    "id": "3610",
    "airportName": "Merle K (Mudhole) Smith Airport",
    "city": "Cordova",
    "country": "United States",
    "code": "CDV",
    "latitude": "60.4917984",
    "longitude": "-145.4779968",
    "altitude": "54",
    "timezone": "-9",
    "DST": "A",
    "destination": "America/Anchorage",
    "type": "airport",
    "source": "OurAirports"
  },
  {
    "id": "3611",
    "airportName": "Norfolk International Airport",
    "city": "Norfolk",
    "country": "United States",
    "code": "ORF",
    "latitude": "36.89459991455078",
    "longitude": "-76.20120239257812",
    "altitude": "26",
    "timezone": "-5",
    "DST": "A",
    "destination": "America/New_York",
    "type": "airport",
    "source": "OurAirports"
  },
  {
    "id": "3612",
    "airportName": "Southeast Texas Regional Airport",
    "city": "Beaumont",
    "country": "United States",
    "code": "BPT",
    "latitude": "29.9507999420166",
    "longitude": "-94.02069854736328",
    "altitude": "15",
    "timezone": "-6",
    "DST": "A",
    "destination": "America/Chicago",
    "type": "airport",
    "source": "OurAirports"
  },
  {
    "id": "3613",
    "airportName": "Savannah Hilton Head International Airport",
    "city": "Savannah",
    "country": "United States",
    "code": "SAV",
    "latitude": "32.12760162",
    "longitude": "-81.20210266",
    "altitude": "50",
    "timezone": "-5",
    "DST": "A",
    "destination": "America/New_York",
    "type": "airport",
    "source": "OurAirports"
  },
  {
    "id": "3614",
    "airportName": "Hill Air Force Base",
    "city": "Ogden",
    "country": "United States",
    "code": "HIF",
    "latitude": "41.12403",
    "longitude": "-111.973086",
    "altitude": "4789",
    "timezone": "-7",
    "DST": "A",
    "destination": "America/Denver",
    "type": "airport",
    "source": "OurAirports"
  },
  {
    "id": "3615",
    "airportName": "Nome Airport",
    "city": "Nome",
    "country": "United States",
    "code": "OME",
    "latitude": "64.51219940185547",
    "longitude": "-165.44500732421875",
    "altitude": "37",
    "timezone": "-9",
    "DST": "A",
    "destination": "America/Anchorage",
    "type": "airport",
    "source": "OurAirports"
  },
  {
    "id": "3617",
    "airportName": "St Petersburg Clearwater International Airport",
    "city": "St. Petersburg",
    "country": "United States",
    "code": "PIE",
    "latitude": "27.91020012",
    "longitude": "-82.68740082",
    "altitude": "11",
    "timezone": "-5",
    "DST": "A",
    "destination": "America/New_York",
    "type": "airport",
    "source": "OurAirports"
  },
  {
    "id": "3618",
    "airportName": "Menominee Regional Airport",
    "city": "Macon",
    "country": "United States",
    "code": "MNM",
    "latitude": "45.126701",
    "longitude": "-87.638397",
    "altitude": "625",
    "timezone": "-6",
    "DST": "A",
    "destination": "America/Chicago",
    "type": "airport",
    "source": "OurAirports"
  },
  {
    "id": "3619",
    "airportName": "Conroe-North Houston Regional Airport",
    "city": "Conroe",
    "country": "United States",
    "code": "CXO",
    "latitude": "30.351801",
    "longitude": "-95.414497",
    "altitude": "245",
    "timezone": "-6",
    "DST": "A",
    "destination": "America/Chicago",
    "type": "airport",
    "source": "OurAirports"
  },
  {
    "id": "3620",
    "airportName": "Deadhorse Airport",
    "city": "Deadhorse",
    "country": "United States",
    "code": "SCC",
    "latitude": "70.19470215",
    "longitude": "-148.4649963",
    "altitude": "65",
    "timezone": "-9",
    "DST": "A",
    "destination": "America/Anchorage",
    "type": "airport",
    "source": "OurAirports"
  },
  {
    "id": "3621",
    "airportName": "San Antonio International Airport",
    "city": "San Antonio",
    "country": "United States",
    "code": "SAT",
    "latitude": "29.533700942993164",
    "longitude": "-98.46980285644531",
    "altitude": "809",
    "timezone": "-6",
    "DST": "A",
    "destination": "America/Chicago",
    "type": "airport",
    "source": "OurAirports"
  },
  {
    "id": "3622",
    "airportName": "Greater Rochester International Airport",
    "city": "Rochester",
    "country": "United States",
    "code": "ROC",
    "latitude": "43.118900299072266",
    "longitude": "-77.67240142822266",
    "altitude": "559",
    "timezone": "-5",
    "DST": "A",
    "destination": "America/New_York",
    "type": "airport",
    "source": "OurAirports"
  },
  {
    "id": "3623",
    "airportName": "Patrick Air Force Base",
    "city": "Coco Beach",
    "country": "United States",
    "code": "COF",
    "latitude": "28.2348995209",
    "longitude": "-80.6100997925",
    "altitude": "8",
    "timezone": "-5",
    "DST": "A",
    "destination": "America/New_York",
    "type": "airport",
    "source": "OurAirports"
  },
  {
    "id": "3624",
    "airportName": "Teterboro Airport",
    "city": "Teterboro",
    "country": "United States",
    "code": "TEB",
    "latitude": "40.85010147089999",
    "longitude": "-74.060798645",
    "altitude": "9",
    "timezone": "-5",
    "DST": "A",
    "destination": "America/New_York",
    "type": "airport",
    "source": "OurAirports"
  },
  {
    "id": "3625",
    "airportName": "Ellsworth Air Force Base",
    "city": "Rapid City",
    "country": "United States",
    "code": "RCA",
    "latitude": "44.14500046",
    "longitude": "-103.1039963",
    "altitude": "3276",
    "timezone": "-7",
    "DST": "A",
    "destination": "America/Denver",
    "type": "airport",
    "source": "OurAirports"
  },
  {
    "id": "3626",
    "airportName": "Raleigh Durham International Airport",
    "city": "Raleigh-durham",
    "country": "United States",
    "code": "RDU",
    "latitude": "35.877601623535156",
    "longitude": "-78.7874984741211",
    "altitude": "435",
    "timezone": "-5",
    "DST": "A",
    "destination": "America/New_York",
    "type": "airport",
    "source": "OurAirports"
  },
  {
    "id": "3627",
    "airportName": "James M Cox Dayton International Airport",
    "city": "Dayton",
    "country": "United States",
    "code": "DAY",
    "latitude": "39.902400970458984",
    "longitude": "-84.21939849853516",
    "altitude": "1009",
    "timezone": "-5",
    "DST": "A",
    "destination": "America/New_York",
    "type": "airport",
    "source": "OurAirports"
  },
  {
    "id": "3628",
    "airportName": "Kenai Municipal Airport",
    "city": "Kenai",
    "country": "United States",
    "code": "ENA",
    "latitude": "60.57310104370117",
    "longitude": "-151.2449951171875",
    "altitude": "99",
    "timezone": "-9",
    "DST": "A",
    "destination": "America/Anchorage",
    "type": "airport",
    "source": "OurAirports"
  },
  {
    "id": "3629",
    "airportName": "Mc Alester Regional Airport",
    "city": "Mcalester",
    "country": "United States",
    "code": "MLC",
    "latitude": "34.882401",
    "longitude": "-95.783501",
    "altitude": "770",
    "timezone": "-6",
    "DST": "A",
    "destination": "America/Chicago",
    "type": "airport",
    "source": "OurAirports"
  },
  {
    "id": "3630",
    "airportName": "Niagara Falls International Airport",
    "city": "Niagara Falls",
    "country": "United States",
    "code": "IAG",
    "latitude": "43.1072998046875",
    "longitude": "-78.94619750976562",
    "altitude": "589",
    "timezone": "-5",
    "DST": "A",
    "destination": "America/New_York",
    "type": "airport",
    "source": "OurAirports"
  },
  {
    "id": "3631",
    "airportName": "Coulter Field",
    "city": "Bryan",
    "country": "United States",
    "code": "CFD",
    "latitude": "30.715700149499998",
    "longitude": "-96.3313980103",
    "altitude": "367",
    "timezone": "-6",
    "DST": "A",
    "destination": "America/Chicago",
    "type": "airport",
    "source": "OurAirports"
  },
  {
    "id": "3632",
    "airportName": "Wright AAF (Fort Stewart)/Midcoast Regional Airport",
    "city": "Wright",
    "country": "United States",
    "code": "LIY",
    "latitude": "31.889099",
    "longitude": "-81.562303",
    "altitude": "45",
    "timezone": "-5",
    "DST": "A",
    "destination": "America/New_York",
    "type": "airport",
    "source": "OurAirports"
  },
  {
    "id": "3633",
    "airportName": "Newport News Williamsburg International Airport",
    "city": "Newport News",
    "country": "United States",
    "code": "PHF",
    "latitude": "37.13190079",
    "longitude": "-76.49299622",
    "altitude": "42",
    "timezone": "-5",
    "DST": "A",
    "destination": "America/New_York",
    "type": "airport",
    "source": "OurAirports"
  },
  {
    "id": "3634",
    "airportName": "Esler Regional Airport",
    "city": "Alexandria",
    "country": "United States",
    "code": "ESF",
    "latitude": "31.3948993683",
    "longitude": "-92.2957992554",
    "altitude": "112",
    "timezone": "-6",
    "DST": "A",
    "destination": "America/Chicago",
    "type": "airport",
    "source": "OurAirports"
  },
  {
    "id": "3635",
    "airportName": "Altus Air Force Base",
    "city": "Altus",
    "country": "United States",
    "code": "LTS",
    "latitude": "34.667098999",
    "longitude": "-99.2667007446",
    "altitude": "1382",
    "timezone": "-6",
    "DST": "A",
    "destination": "America/Chicago",
    "type": "airport",
    "source": "OurAirports"
  },
  {
    "id": "3636",
    "airportName": "Tucson International Airport",
    "city": "Tucson",
    "country": "United States",
    "code": "TUS",
    "latitude": "32.1161003112793",
    "longitude": "-110.94100189208984",
    "altitude": "2643",
    "timezone": "-7",
    "DST": "N",
    "destination": "America/Phoenix",
    "type": "airport",
    "source": "OurAirports"
  },
  {
    "id": "3637",
    "airportName": "Minot Air Force Base",
    "city": "Minot",
    "country": "United States",
    "code": "MIB",
    "latitude": "48.4156",
    "longitude": "-101.358002",
    "altitude": "1667",
    "timezone": "-6",
    "DST": "A",
    "destination": "America/Chicago",
    "type": "airport",
    "source": "OurAirports"
  },
  {
    "id": "3638",
    "airportName": "Beale Air Force Base",
    "city": "Marysville",
    "country": "United States",
    "code": "BAB",
    "latitude": "39.136100769",
    "longitude": "-121.43699646",
    "altitude": "113",
    "timezone": "-8",
    "DST": "A",
    "destination": "America/Los_Angeles",
    "type": "airport",
    "source": "OurAirports"
  },
  {
    "id": "3639",
    "airportName": "Greater Kankakee Airport",
    "city": "Kankakee",
    "country": "United States",
    "code": "IKK",
    "latitude": "41.07139968869999",
    "longitude": "-87.8462982178",
    "altitude": "630",
    "timezone": "-6",
    "DST": "A",
    "destination": "America/Chicago",
    "type": "airport",
    "source": "OurAirports"
  },
  {
    "id": "3640",
    "airportName": "Seymour Johnson Air Force Base",
    "city": "Goldsboro",
    "country": "United States",
    "code": "GSB",
    "latitude": "35.33940125",
    "longitude": "-77.96060181",
    "altitude": "109",
    "timezone": "-5",
    "DST": "A",
    "destination": "America/New_York",
    "type": "airport",
    "source": "OurAirports"
  },
  {
    "id": "3641",
    "airportName": "Theodore Francis Green State Airport",
    "city": "Providence",
    "country": "United States",
    "code": "PVD",
    "latitude": "41.732601",
    "longitude": "-71.420403",
    "altitude": "55",
    "timezone": "-5",
    "DST": "A",
    "destination": "America/New_York",
    "type": "airport",
    "source": "OurAirports"
  },
  {
    "id": "3642",
    "airportName": "Salisbury Ocean City Wicomico Regional Airport",
    "city": "Salisbury",
    "country": "United States",
    "code": "SBY",
    "latitude": "38.34049987792969",
    "longitude": "-75.51029968261719",
    "altitude": "52",
    "timezone": "-5",
    "DST": "A",
    "destination": "America/New_York",
    "type": "airport",
    "source": "OurAirports"
  },
  {
    "id": "3644",
    "airportName": "Bob Hope Airport",
    "city": "Burbank",
    "country": "United States",
    "code": "BUR",
    "latitude": "34.20069885253906",
    "longitude": "-118.35900115966797",
    "altitude": "778",
    "timezone": "-8",
    "DST": "A",
    "destination": "America/Los_Angeles",
    "type": "airport",
    "source": "OurAirports"
  },
  {
    "id": "3645",
    "airportName": "Detroit Metropolitan Wayne County Airport",
    "city": "Detroit",
    "country": "United States",
    "code": "DTW",
    "latitude": "42.212398529052734",
    "longitude": "-83.35340118408203",
    "altitude": "645",
    "timezone": "-5",
    "DST": "A",
    "destination": "America/New_York",
    "type": "airport",
    "source": "OurAirports"
  },
  {
    "id": "3646",
    "airportName": "Tampa International Airport",
    "city": "Tampa",
    "country": "United States",
    "code": "TPA",
    "latitude": "27.975500106811523",
    "longitude": "-82.533203125",
    "altitude": "26",
    "timezone": "-5",
    "DST": "A",
    "destination": "America/New_York",
    "type": "airport",
    "source": "OurAirports"
  },
  {
    "id": "3647",
    "airportName": "Pembina Municipal Airport",
    "city": "Pembina",
    "country": "United States",
    "code": "PMB",
    "latitude": "48.9425010681",
    "longitude": "-97.2407989502",
    "altitude": "795",
    "timezone": "-6",
    "DST": "A",
    "destination": "America/Chicago",
    "type": "airport",
    "source": "OurAirports"
  },
  {
    "id": "3648",
    "airportName": "Polk Army Air Field",
    "city": "Fort Polk",
    "country": "United States",
    "code": "POE",
    "latitude": "31.0447998",
    "longitude": "-93.1917038",
    "altitude": "330",
    "timezone": "-6",
    "DST": "A",
    "destination": "America/Chicago",
    "type": "airport",
    "source": "OurAirports"
  },
  {
    "id": "3649",
    "airportName": "Eielson Air Force Base",
    "city": "Fairbanks",
    "country": "United States",
    "code": "EIL",
    "latitude": "64.66570282",
    "longitude": "-147.102005",
    "altitude": "547",
    "timezone": "-9",
    "DST": "A",
    "destination": "America/Anchorage",
    "type": "airport",
    "source": "OurAirports"
  },
  {
    "id": "3650",
    "airportName": "Range Regional Airport",
    "city": "Hibbing",
    "country": "United States",
    "code": "HIB",
    "latitude": "47.38660049",
    "longitude": "-92.83899689",
    "altitude": "1354",
    "timezone": "-6",
    "DST": "A",
    "destination": "America/Chicago",
    "type": "airport",
    "source": "OurAirports"
  },
  {
    "id": "3651",
    "airportName": "Angelina County Airport",
    "city": "Lufkin",
    "country": "United States",
    "code": "LFK",
    "latitude": "31.2339992523",
    "longitude": "-94.75",
    "altitude": "296",
    "timezone": "-6",
    "DST": "A",
    "destination": "America/Chicago",
    "type": "airport",
    "source": "OurAirports"
  },
  {
    "id": "3652",
    "airportName": "Midland International Airport",
    "city": "Midland",
    "country": "United States",
    "code": "MAF",
    "latitude": "31.9424991607666",
    "longitude": "-102.2020034790039",
    "altitude": "2871",
    "timezone": "-6",
    "DST": "A",
    "destination": "America/Chicago",
    "type": "airport",
    "source": "OurAirports"
  },
  {
    "id": "3653",
    "airportName": "Austin Straubel International Airport",
    "city": "Green Bay",
    "country": "United States",
    "code": "GRB",
    "latitude": "44.48509979248047",
    "longitude": "-88.12960052490234",
    "altitude": "695",
    "timezone": "-6",
    "DST": "A",
    "destination": "America/Chicago",
    "type": "airport",
    "source": "OurAirports"
  },
  {
    "id": "3654",
    "airportName": "Ardmore Municipal Airport",
    "city": "Ardmore",
    "country": "United States",
    "code": "ADM",
    "latitude": "34.30301",
    "longitude": "-97.0196342",
    "altitude": "777",
    "timezone": "-6",
    "DST": "A",
    "destination": "America/Chicago",
    "type": "airport",
    "source": "OurAirports"
  },
  {
    "id": "3655",
    "airportName": "Mc Guire Air Force Base",
    "city": "Wrightstown",
    "country": "United States",
    "code": "WRI",
    "latitude": "40.0155983",
    "longitude": "-74.59169769",
    "altitude": "131",
    "timezone": "-5",
    "DST": "A",
    "destination": "America/New_York",
    "type": "airport",
    "source": "OurAirports"
  },
  {
    "id": "3658",
    "airportName": "Augusta Regional At Bush Field",
    "city": "Bush Field",
    "country": "United States",
    "code": "AGS",
    "latitude": "33.36989974975586",
    "longitude": "-81.9645004272461",
    "altitude": "144",
    "timezone": "-5",
    "DST": "A",
    "destination": "America/New_York",
    "type": "airport",
    "source": "OurAirports"
  },
  {
    "id": "3659",
    "airportName": "Sloulin Field International Airport",
    "city": "Williston",
    "country": "United States",
    "code": "ISN",
    "latitude": "48.177898407",
    "longitude": "-103.641998291",
    "altitude": "1982",
    "timezone": "-6",
    "DST": "A",
    "destination": "America/Chicago",
    "type": "airport",
    "source": "OurAirports"
  },
  {
    "id": "3660",
    "airportName": "Bill & Hillary Clinton National Airport/Adams Field",
    "city": "Little Rock",
    "country": "United States",
    "code": "LIT",
    "latitude": "34.729400634799994",
    "longitude": "-92.2242965698",
    "altitude": "262",
    "timezone": "-6",
    "DST": "A",
    "destination": "America/Chicago",
    "type": "airport",
    "source": "OurAirports"
  },
  {
    "id": "3661",
    "airportName": "Stewart International Airport",
    "city": "Newburgh",
    "country": "United States",
    "code": "SWF",
    "latitude": "41.50410079956055",
    "longitude": "-74.10479736328125",
    "altitude": "491",
    "timezone": "-5",
    "DST": "A",
    "destination": "America/New_York",
    "type": "airport",
    "source": "OurAirports"
  },